id;departement_code;zip_code;name;gps_lat;gps_lng
29900;75;75001;Paris;48.86404930000000;2.33105260000000
29901;75;75002;Paris;48.86756410000000;2.34399000000000
29902;75;75003;Paris;48.86347990000000;2.35911450000000
29903;75;75004;Paris;48.85342750000000;2.35827880000000
29904;75;75005;Paris;48.84349120000000;2.35183390000000
29905;75;75006;Paris;48.84885760000000;2.33542230000000
29906;75;75007;Paris;48.85433450000001;2.31340290000000
29907;75;75008;Paris;48.87187220000000;2.31764320000000
29908;75;75009;Paris;48.87901830000000;2.33790630000000
29909;75;75010;Paris;48.87856180000000;2.36036890000000
29910;75;75011;Paris;48.85799300000001;2.38115300000000
29911;75;75012;Paris;48.82936470000000;2.42654060000000
29912;75;75013;Paris;48.83075900000000;2.35920400000000
29913;75;75014;Paris;48.83144080000000;2.32556840000000
29914;75;75015;Paris;48.84216160000000;2.29276650000000
29915;75;75016;Paris;48.85309330000000;2.24876260000000
29916;75;75017;Paris;48.89198600000000;2.31928700000000
29917;75;75018;Paris;48.89130500000000;2.35298670000000
29918;75;75019;Paris;48.89061359999999;2.38670830000000
29919;75;75020;Paris;48.85998250000000;2.40664120000000
29920;75;75116;Paris;48.85857990000000;2.28470170000000
30639;77;77760;Achères-la-Forêt;48.35097184210527;2.56216421052632
30640;77;77120;Amillis;48.73402720930233;3.14414775193798
30641;77;77760;Amponville;48.29470631578948;2.52667210526316
30642;77;77390;Andrezel;48.61203014925373;2.80024119402985
30643;77;77410;Annet-sur-Marne;48.91934039603961;2.70429782178218
30644;77;77630;Arbonne-la-Forêt;48.41652615384616;2.55906102564103
30645;77;77390;Argentières;48.65265836363637;2.86949581818182
30646;77;77440;Armentières-en-Brie;48.97688391891892;3.00896783783784
30647;77;77890;Arville;48.18294340000002;2.55589740000000
30648;77;77720;Aubepierre-Ozouer-le-Repos;48.61551587939697;2.90417195979900
30649;77;77570;Aufferville;48.20259325581397;2.60652069767442
30650;77;77560;Augers-en-Brie;48.67020926315790;3.34430010526316
30651;77;77120;Aulnoy;48.85165771929822;3.09306710526316
30652;77;77210;Avon;48.41224213114753;2.73177213114754
30653;77;77480;Baby;48.39202868421053;3.34216263157895
30654;77;77167;Bagneaux-sur-Loing;48.21815702702703;2.71048635135135
30655;77;77700;Bailly-Romainvilliers;48.84410456790123;2.81910222222222
30656;77;77118;Balloy;48.40320999999999;3.14853030303030
30657;77;77970;Bannost-Villegagnon;48.67643639097743;3.19061992481203
30658;77;77130;Barbey;48.36498735849057;3.04890377358491
30659;77;77630;Barbizon;48.44965737704918;2.59961049180328
30660;77;77910;Barcy;49.01845220779221;2.87660636363636
30661;77;77750;Bassevelle;48.91632842105262;3.26980094736842
30662;77;77118;Bazoches-lès-Bray;48.40402566929136;3.18857677165354
30663;77;77560;Beauchery-Saint-Martin;48.60149323232326;3.42572010101010
30664;77;77890;Beaumont-du-Gâtinais;48.13757531645571;2.48104658227848
30665;77;77120;Beautheil;48.76272852272728;3.08706750000000
30666;77;77390;Beauvoir;48.64435458333332;2.86219750000000
30667;77;77510;Bellot;48.84587753731343;3.32709373134328
30668;77;77540;Bernay-Vilbert;48.67484158333332;2.93365683333333
30669;77;77320;Beton-Bazoches;48.70170112068963;3.24366500000000
30670;77;77970;Bezalles;48.66885732142856;3.23904696428571
30671;77;77115;Blandy;48.55740842975207;2.78623826446281
30672;77;77940;Blennes;48.23937377777780;3.00829644444444
30673;77;77970;Boisdon;48.67696776315790;3.22673184210526
30674;77;77590;Bois-le-Roi;48.47917703703703;2.70036555555556
30675;77;77350;Boissettes;48.52382437499999;2.61236781250000
30676;77;77350;Boissise-la-Bertrand;48.53131529411765;2.59617588235294
30677;77;77310;Boissise-le-Roi;48.51694936708863;2.56637455696203
30678;77;77760;Boissy-aux-Cailles;48.30947375000001;2.49704138888889
30679;77;77169;Boissy-le-Châtel;48.82543117283950;3.13413401234568
30680;77;77750;Boitron;48.89541944444444;3.25830388888889
30681;77;77720;Bombon;48.56848774999998;2.86653200000000
30682;77;77570;Bougligny;48.20099437499999;2.66858812500000
30683;77;77760;Boulancourt;48.25882916666667;2.44545066666667
30684;77;77580;Bouleurs;48.87992411111111;2.90577422222222
30685;77;77780;Bourron-Marlotte;48.33815098901099;2.69968769230769
30686;77;77470;Boutigny;48.91236464912281;2.93011385964912
30687;77;77620;Bransles;48.15163834862386;2.82782834862385
30688;77;77480;Bray-sur-Seine;48.41775166666665;3.24446071428571
30689;77;77720;Bréau;48.55816931034483;2.88288137931034
30690;77;77170;Brie-Comte-Robert;48.68841195266272;2.61687952662722
30691;77;77940;La Brosse-Montceaux;48.33955200000001;3.02434358333333
30692;77;77177;Brou-sur-Chantereine;48.88824428571430;2.63539785714286
30693;77;77760;Burcy;48.23127475000002;2.52617450000000
30694;77;77750;Bussières;48.92695581818181;3.23730163636364
30695;77;77600;Bussy-Saint-Georges;48.83112895161288;2.71641056451613
30696;77;77600;Bussy-Saint-Martin;48.84487412698412;2.67901396825397
30697;77;77760;Buthiers;48.28639867346940;2.44582897959184
30698;77;77130;Cannes-Écluse;48.36108173913044;2.99403043478261
30699;77;77400;Carnetin;48.90404921568628;2.70060529411765
30700;77;77515;La Celle-sur-Morin;48.80477963414635;2.97025304878049
30701;77;77930;Cély;48.45809773195877;2.52475175257732
30702;77;77320;Cerneux;48.70673961538459;3.34506451923077
30703;77;77240;Cesson;48.56500516666667;2.58960816666667
30704;77;77520;Cessoy-en-Montois;48.50638457142857;3.14413500000000
30705;77;77930;Chailly-en-Bière;48.47115570175440;2.61785456140351
30706;77;77120;Chailly-en-Brie;48.79321561538458;3.13609200000000
30707;77;77460;Chaintreaux;48.18958951724139;2.81104648275862
30708;77;77171;Chalautre-la-Grande;48.54831210526316;3.44938589473684
30709;77;77160;Chalautre-la-Petite;48.52590791208792;3.30611978021978
30710;77;77144;Chalifert;48.89648092592592;2.77260592592593
30711;77;77650;Chalmaison;48.48784876404497;3.25465853932584
30712;77;77910;Chambry;48.99797743902437;2.88632243902439
30713;77;77260;Chamigny;48.98617834437085;3.13713827814569
30714;77;77430;Champagne-sur-Seine;48.40728250000000;2.80194357142857
30715;77;77560;Champcenest;48.66737488372094;3.28208848837209
30716;77;77390;Champdeuil;48.62236533333333;2.73237600000000
30717;77;77720;Champeaux;48.58911399999999;2.81778040000000
30718;77;77420;Champs-sur-Marne;48.84876163636365;2.59262545454545
30719;77;77660;Changis-sur-Marne;48.96765982142858;3.02696071428571
30720;77;77600;Chanteloup-en-Brie;48.85570875000001;2.73911339285714
30721;77;77720;La Chapelle-Gauthier;48.53337212290506;2.85918553072626
30722;77;77540;La Chapelle-Iger;48.65084886956521;2.98584634782609
30723;77;77760;La Chapelle-la-Reine;48.31651569892472;2.56940548387097
30724;77;77370;La Chapelle-Rablais;48.50701172413793;2.95718413793104
30725;77;77160;La Chapelle-Saint-Sulpice;48.55826919354838;3.17858338709677
30726;77;77610;Les Chapelles-Bourbon;48.74484637931034;2.83786637931035
30727;77;77320;La Chapelle-Moutils;48.77232354037267;3.37719658385093
30728;77;77410;Charmentray;48.95284747126436;2.78324482758621
30729;77;77410;Charny;48.96811696202533;2.75865493670886
30730;77;77590;Chartrettes;48.49900300000001;2.71309985714286
30731;77;77320;Chartronges;48.75040911764705;3.26275617647059
30732;77;77370;Châteaubleau;48.58386317460318;3.10632079365079
30733;77;77570;Château-Landon;48.14737194690264;2.69710442477876
30734;77;77820;Le Châtelet-en-Brie;48.50085227941177;2.80371132352941
30735;77;77126;Châtenay-sur-Seine;48.41798128712866;3.09829792079208
30736;77;77167;Châtenoy;48.23319750000001;2.63219660714286
30737;77;77820;Châtillon-la-Borde;48.53754499999999;2.81792656250000
30738;77;77610;Châtres;48.70886442105260;2.81372305263158
30739;77;77169;Chauffry;48.82238448979594;3.17958193877551
30740;77;77390;Chaumes-en-Brie;48.66644418750002;2.84178981250000
30741;77;77500;Chelles;48.88420598639454;2.59006829931973
30742;77;77160;Chenoise;48.62407185185187;3.19327259259259
30743;77;77570;Chenou;48.16107156862745;2.65231607843137
30744;77;77700;Chessy;48.87084216666667;2.77046716666667
30745;77;77760;Chevrainvilliers;48.24477020833334;2.60896708333333
30746;77;77320;Chevru;48.73846873949577;3.18714394957983
30747;77;77173;Chevry-Cossigny;48.72239648351650;2.67365428571429
30748;77;77710;Chevry-en-Sereine;48.24888562913906;2.96322854304636
30749;77;77320;Choisy-en-Brie;48.76309663865548;3.20208394957983
30750;77;77730;Citry;48.95788716666667;3.24822466666667
30751;77;77410;Claye-Souilly;48.94056559999999;2.67686184000000
30752;77;77370;Clos-Fontaine;48.60387260869566;3.01243739130435
30753;77;77440;Cocherel;49.01867000000000;3.09339448979592
30754;77;77090;Collégien;48.82777658536587;2.67749414634146
30755;77;77380;Combs-la-Ville;48.66286702702703;2.57381495495496
30756;77;77290;Compans;48.98606545454545;2.66183220779221
30757;77;77600;Conches-sur-Gondoire;48.85798545454546;2.72153969696970
30758;77;77450;Condé-Sainte-Libiaire;48.89850491525421;2.83481661016949
30759;77;77440;Congis-sur-Thérouanne;49.01728294117647;2.97718470588235
30760;77;77170;Coubert;48.68099146067416;2.71208348314607
30761;77;77860;Couilly-Pont-aux-Dames;48.88321702380953;2.86306488095238
30762;77;77840;Coulombs-en-Valois;49.08156694300517;3.12716564766839
30763;77;77580;Coulommes;48.89359852459016;2.92558786885246
30764;77;77120;Coulommiers;48.81560180451127;3.09695060150376
30765;77;77700;Coupvray;48.89023433333332;2.79237183333333
30766;77;77126;Courcelles-en-Bassée;48.41026553191491;3.05020368794326
30767;77;77560;Courchamp;48.64381560439561;3.28969714285714
30768;77;77540;Courpalay;48.64141223021583;2.95880604316547
30769;77;77390;Courquetaine;48.67928010989011;2.74450164835165
30770;77;77560;Courtacon;48.70028330188678;3.29205094339623
30771;77;77390;Courtomer;48.65891800000001;2.89573644444444
30772;77;77181;Courtry;48.91922243243242;2.59945270270270
30773;77;77154;Coutençon;48.47410927272728;2.99627763636364
30774;77;77580;Coutevroult;48.85323324324323;2.84832486486487
30775;77;77580;Crécy-la-Chapelle;48.85548583333332;2.91993469696970
30776;77;77124;Crégy-lès-Meaux;48.97593320754719;2.87409622641509
30777;77;77610;Crèvecœur-en-Brie;48.74903140625000;2.90353921875000
30778;77;77390;Crisenoy;48.60612761904764;2.74483738095238
30779;77;77183;Croissy-Beaubourg;48.81297800000001;2.64534244444444
30780;77;77370;La Croix-en-Brie;48.59506946308726;3.06434046979866
30781;77;77840;Crouy-sur-Ourcq;49.09005024390240;3.08073795121951
30782;77;77160;Cucharmoy;48.58556599999999;3.17764422222222
30783;77;77165;Cuisy;49.01891188679245;2.77611867924528
30784;77;77320;Dagny;48.71366000000000;3.16504353658537
30785;77;77190;Dammarie-les-Lys;48.51661191489362;2.62008659574468
30786;77;77230;Dammartin-en-Goële;49.05349525000001;2.67758733333333
30787;77;77163;Dammartin-sur-Tigeaux;48.81365176470590;2.91654397058823
30788;77;77400;Dampmart;48.89428142857142;2.74288653061224
30789;77;77140;Darvault;48.27661032786884;2.72365327868852
30790;77;77440;Dhuisy;49.03502148936171;3.16522595744681
30791;77;77940;Diant;48.29102431372549;3.00184735294118
30792;77;77520;Donnemarie-Dontilly;48.48020708955222;3.11879216417911
30793;77;77130;Dormelles;48.31453531914896;2.88516865248227
30794;77;77510;Doue;48.87647066666666;3.16508360000000
30795;77;77139;Douy-la-Ramée;49.05926121951220;2.88457227642276
30796;77;77830;Échouboulains;48.46791300813006;2.93019211382114
30797;77;77820;Les Écrennes;48.49862702127660;2.87610234042553
30798;77;77126;Égligny;48.43687673076925;3.12897557692308
30799;77;77620;Égreville;48.18774314814817;2.88337879629630
30800;77;77184;Émerainville;48.81940481481482;2.60728333333333
30801;77;77450;Esbly;48.90163306451613;2.81305661290322
30802;77;77940;Esmans;48.34190316326533;2.96783408163265
30803;77;77139;Étrépilly;49.04694310344830;2.92895862068966
30804;77;77157;Everly;48.45644267441860;3.26809697674419
30805;77;77166;Évry-Grégy-sur-Yerre;48.65567279999999;2.64520897142857
30806;77;77515;Faremoutiers;48.77916628571428;3.00231257142857
30807;77;77220;Favières;48.77847990909093;2.76852436363636
30808;77;77167;Faÿ-lès-Nemours;48.22655300000000;2.66099200000000
30809;77;77133;Féricy;48.46323406779662;2.80451949152542
30810;77;77150;Férolles-Attilly;48.73671792792793;2.63947549549550
30811;77;77164;Ferrières-en-Brie;48.81941611111109;2.71014277777778
30812;77;77320;La Ferté-Gaucher;48.78955665048545;3.30769359223301
30813;77;77260;La Ferté-sous-Jouarre;48.94984402234637;3.13578446927374
30814;77;77940;Flagy;48.30990306930690;2.91883297029703
30815;77;77930;Fleury-en-Bière;48.44844631147541;2.54258442622951
30816;77;77300;Fontainebleau;48.42044948905109;2.69089734793188
30817;77;77480;Fontaine-Fourches;48.41349693548390;3.39914435483871
30818;77;77590;Fontaine-le-Port;48.47995638554217;2.77336626506024
30819;77;77370;Fontains;48.52446037037036;3.00881785185185
30820;77;77370;Fontenailles;48.52386836257307;2.92366771929824
30821;77;77610;Fontenay-Trésigny;48.69937090322579;2.86363283870968
30822;77;77165;Forfry;49.05494492957745;2.85908464788732
30823;77;77130;Forges;48.41925279999999;2.94592400000000
30824;77;77390;Fouju;48.58837369565217;2.76587260869565
30825;77;77410;Fresnes-sur-Marne;48.94333982142859;2.73686500000000
30826;77;77320;Frétoy;48.70402343283581;3.19858641791045
30827;77;77760;Fromont;48.25455361702127;2.50494212765957
30828;77;77470;Fublaines;48.93737370786515;2.94732325842697
30829;77;77890;Garentreville;48.23449181818181;2.55604121212121
30830;77;77370;Gastins;48.62658258064516;3.02236475806452
30831;77;77690;La Genevraye;48.31468241071429;2.75702544642857
30832;77;77910;Germigny-l'Évêque;48.98824750000001;2.95620890625000
30833;77;77840;Germigny-sous-Coulombs;49.06190428571428;3.15669657142857
30834;77;77165;Gesvres-le-Chapitre;49.03256314814814;2.84012055555556
30835;77;77120;Giremoutiers;48.85317090909090;3.03066787878788
30836;77;77890;Gironville;48.16719475409838;2.53093836065574
30837;77;77114;Gouaix;48.47501109999999;3.29736560000000
30838;77;77400;Gouvernes;48.85801285714285;2.68926500000000
30839;77;77130;La Grande-Paroisse;48.39277567375888;2.88901191489362
30840;77;77720;Grandpuits-Bailly-Carrois;48.58123340277778;2.97241791666667
30841;77;77118;Gravon;48.39279102272728;3.12492545454545
30842;77;77410;Gressy;48.96693684931509;2.66842863013699
30843;77;77220;Gretz-Armainvilliers;48.74366000000002;2.72918033707865
30844;77;77880;Grez-sur-Loing;48.30823591397849;2.69073559139785
30845;77;77166;Grisy-Suisnes;48.67814323741007;2.67478402877698
30846;77;77480;Grisy-sur-Seine;48.44083742857140;3.31643380952381
30847;77;77580;Guérard;48.81406878378379;2.94734371621622
30848;77;77760;Guercheville;48.25839482758620;2.55440758620690
30849;77;77600;Guermantes;48.85236235294117;2.71469235294118
30850;77;77390;Guignes;48.63679677083334;2.80469447916667
30851;77;77520;Gurcy-le-Châtel;48.48637967032965;3.08138032967033
30852;77;77515;Hautefeuille;48.76857770833335;2.96591020833333
30853;77;77580;La Haute-Maison;48.88342253164557;3.00960898734177
30854;77;77850;Héricy;48.44467837837838;2.78484500000000
30855;77;77114;Hermé;48.48047090090090;3.35343747747748
30856;77;77510;Hondevilliers;48.89940857142855;3.31179500000000
30857;77;77610;La Houssaye-en-Brie;48.75475302521009;2.86806781512605
30858;77;77890;Ichy;48.20273137931035;2.54208344827586
30859;77;77440;Isles-les-Meldeuses;48.99984230769231;3.01250615384615
30860;77;77450;Isles-lès-Villenoy;48.91199500000000;2.83027454545454
30861;77;77165;Iverny;48.99874358974358;2.78887948717949
30862;77;77450;Jablines;48.91586000000000;2.75689438356164
30863;77;77440;Jaignes;48.98676499999998;3.08389412280702
30864;77;77480;Jaulnes;48.41863547486034;3.28138541899442
30865;77;77600;Jossigny;48.83475720588237;2.76140264705882
30866;77;77640;Jouarre;48.90890880813954;3.12395938953488
30867;77;77970;Jouy-le-Châtel;48.67449974999999;3.15114183333333
30868;77;77320;Jouy-sur-Morin;48.79673496000001;3.27085496000000
30869;77;77230;Juilly;49.02337547169812;2.71309320754717
30870;77;77650;Jutigny;48.49291415384614;3.22460784615385
30871;77;77400;Lagny-sur-Marne;48.87299630769230;2.71246384615385
30872;77;77760;Larchant;48.29143010989011;2.60567626373626
30873;77;77148;Laval-en-Brie;48.45542426086956;2.97236208695652
30874;77;77171;Léchelle;48.56821574468083;3.38821702127660
30875;77;77320;Lescherolles;48.76290194244604;3.35520316546763
30876;77;77450;Lesches;48.91428148148149;2.79517370370370
30877;77;77150;Lésigny;48.74926924369748;2.62192655462185
30878;77;77320;Leudon-en-Brie;48.73045430769230;3.27009353846154
30879;77;77127;Lieusaint;48.63014764705884;2.55379682352941
30880;77;77550;Limoges-Fourches;48.62724213483144;2.66928393258427
30881;77;77550;Lissy;48.61822457142858;2.70070257142857
30882;77;77220;Liverdy-en-Brie;48.69654592592592;2.77640407407407
30883;77;77000;Livry-sur-Seine;48.50691298245614;2.69118543859649
30884;77;77650;Lizines;48.52943840579710;3.16523217391305
30885;77;77440;Lizy-sur-Ourcq;49.03469581395348;3.02108093023256
30886;77;77185;Lognes;48.83369255813954;2.63750372093023
30887;77;77230;Longperrier;49.05042717391303;2.65727195652174
30888;77;77650;Longueville;48.51575898876406;3.23616629213483
30889;77;77710;Lorrez-le-Bocage-Préaux;48.23725553030303;2.89285522727273
30890;77;77560;Louan-Villegruis-Fontaine;48.62177280701754;3.49884830409357
30891;77;77520;Luisetaines;48.46226350649351;3.19157077922078
30892;77;77540;Lumigny-Nesles-Ormeaux;48.71573222857146;2.96252914285714
30893;77;77138;Luzancy;48.97381825396825;3.17977539682540
30894;77;77133;Machault;48.45307858407079;2.84541309734513
30895;77;77570;La Madeleine-sur-Loing;48.20529039473686;2.70163960526316
30896;77;77700;Magny-le-Hongre;48.86788612500002;2.81958537500000
30897;77;77950;Maincy;48.55420769230769;2.70715128205128
30898;77;77580;Maisoncelles-en-Brie;48.85696586206898;3.00361741379310
30899;77;77570;Maisoncelles-en-Gâtinais;48.18515488888890;2.61783822222222
30900;77;77370;Maison-Rouge;48.55434661016950;3.15407449152542
30901;77;77230;Marchémoret;49.05307426229508;2.75217524590164
30902;77;77139;Marcilly;49.03732954545455;2.88554118181818
30903;77;77560;Les Marêts;48.67380366197184;3.31872281690141
30904;77;77100;Mareuil-lès-Meaux;48.91889101449275;2.87624985507246
30905;77;77610;Marles-en-Brie;48.72693999999999;2.87975406779661
30906;77;77120;Marolles-en-Brie;48.77578623188406;3.16797956521739
30907;77;77130;Marolles-sur-Seine;48.38555063829786;3.02951900709220
30908;77;77440;Mary-sur-Marne;49.01541886363637;3.03139704545455
30909;77;77120;Mauperthuis;48.76700071428570;3.03613642857143
30910;77;77990;Mauregard;49.02653430107527;2.56905247311828
30911;77;77145;May-en-Multien;49.06931030075188;3.03301240601504
30912;77;77100;Meaux;48.95765236363639;2.89053336363636
30913;77;77350;Le Mée-sur-Seine;48.54078936170213;2.63065872340426
30914;77;77520;Meigneux;48.51331206521740;3.09477108695652
30915;77;77320;Meilleray;48.79599839416057;3.41914656934306
30916;77;77000;Melun;48.54081305882353;2.65851670588235
30917;77;77171;Melz-sur-Seine;48.49094319327730;3.40500159663866
30918;77;77730;Méry-sur-Marne;48.97499050847457;3.20300728813559
30919;77;77990;Le Mesnil-Amelot;49.01701056074765;2.59546046728972
30920;77;77410;Messy;48.96618917647059;2.68945729411765
30921;77;77130;Misy-sur-Yonne;48.36345746031746;3.09524936507936
30922;77;77290;Mitry-Mory;48.97789846938777;2.61847877551020
30923;77;77950;Moisenay;48.56305129411765;2.74284129411765
30924;77;77550;Moissy-Cramayel;48.62431416666666;2.59503819444444
30925;77;77570;Mondreville;48.14929910714285;2.60455000000000
30926;77;77520;Mons-en-Montois;48.49113021739128;3.13941619565217
30927;77;77470;Montceaux-lès-Meaux;48.94585739726027;2.99587123287671
30928;77;77151;Montceaux-lès-Provins;48.69484369369371;3.44472639639640
30929;77;77140;Montcourt-Fromonville;48.30169902777778;2.70997694444444
30930;77;77320;Montdauphin;48.85457675675676;3.42352533783784
30931;77;77320;Montenils;48.83108351351351;3.47602621621622
30932;77;77130;Montereau-Fault-Yonne;48.38660657142858;2.96337304761905
30933;77;77950;Montereau-sur-le-Jard;48.59992044776121;2.67439358208955
30934;77;77144;Montévrain;48.86482014925374;2.75248313432836
30935;77;77230;Montgé-en-Goële;49.02663257425740;2.73973702970297
30936;77;77122;Monthyon;49.01276643835615;2.83213191780822
30937;77;77480;Montigny-le-Guesdier;48.38232328358210;3.25355044776119
30938;77;77520;Montigny-Lencoup;48.45362969696969;3.06013909090909
30939;77;77690;Montigny-sur-Loing;48.33982885714287;2.75604157142857
30940;77;77940;Montmachoux;48.31936742857143;2.99252085714286
30941;77;77320;Montolivet;48.83061008849558;3.43069769911504
30942;77;77450;Montry;48.88632954545456;2.82739196969697
30943;77;77250;Moret-Loing-et-Orvanne;48.35207140350877;2.81640877192982
30944;77;77720;Mormant;48.60163883720931;2.87793573643411
30945;77;77163;Mortcerf;48.78394176470587;2.89764514705882
30946;77;77160;Mortery;48.58968207547172;3.25018113207547
30947;77;77120;Mouroux;48.82662645669291;3.05247322834645
30948;77;77480;Mousseaux-lès-Bray;48.39978727272727;3.23050424242424
30949;77;77230;Moussy-le-Neuf;49.07098702127659;2.61188670212766
30950;77;77230;Moussy-le-Vieux;49.04788666666667;2.62045986111111
30951;77;77480;Mouy-sur-Seine;48.43253851562499;3.24344523437500
30952;77;77176;Nandy;48.58176098591551;2.54876971830986
30953;77;77370;Nangis;48.55192962499998;3.01172675000000
30954;77;77760;Nanteau-sur-Essonne;48.32001482142857;2.41490598214286
30955;77;77710;Nanteau-sur-Lunain;48.25538956043956;2.82135846153846
30956;77;77100;Nanteuil-lès-Meaux;48.93077806451614;2.90140935483871
30957;77;77730;Nanteuil-sur-Marne;48.97944674999998;3.22220125000000
30958;77;77230;Nantouillet;48.99788707692308;2.70230015384615
30959;77;77140;Nemours;48.25878336842107;2.71123063157895
30960;77;77124;Chauconin-Neufmontiers;48.96940767857141;2.83746750000000
30961;77;77610;Neufmoutiers-en-Brie;48.77387061946903;2.82887601769911
30962;77;77186;Noisiel;48.84523557692308;2.61769903846154
30963;77;77940;Noisy-Rudignon;48.33505901639345;2.93441508196721
30964;77;77123;Noisy-sur-École;48.37441489583333;2.49830520833333
30965;77;77140;Nonville;48.28839452054795;2.78249561643836
30966;77;77114;Noyen-sur-Seine;48.45316787878787;3.34082460606061
30967;77;77890;Obsonville;48.21817722222222;2.56778333333333
30968;77;77440;Ocquerre;49.03606077922079;3.05856292207792
30969;77;77178;Oissery;49.06974125000001;2.82135153846154
30970;77;77750;Orly-sur-Morin;48.90026242718447;3.22873883495146
30971;77;77134;Les Ormes-sur-Voulzie;48.45689343511451;3.22140427480916
30972;77;77167;Ormesson;48.24570545454545;2.64871324675325
30973;77;77280;Othis;49.08508262711865;2.64851449152542
30974;77;77330;Ozoir-la-Ferrière;48.76302306122450;2.66824877551020
30975;77;77390;Ozouer-le-Voulgis;48.66184193277312;2.77302016806723
30976;77;77710;Paley;48.24011242424240;2.85474555555556
30977;77;77830;Pamfou;48.46623051020408;2.85639010204082
30978;77;77520;Paroy;48.47687504424778;3.19903849557522
30979;77;77480;Passy-sur-Seine;48.42730275862068;3.34098413793103
30980;77;77970;Pécy;48.64896373983741;3.05543016260163
30981;77;77124;Penchard;48.99291500000000;2.86099037037037
30982;77;77930;Perthes;48.47972068493152;2.54941027397260
30983;77;77131;Pézarches;48.74346142857142;2.98886928571429
30984;77;77580;Pierre-Levée;48.89692227722771;3.04120940594059
30985;77;77181;Le Pin;48.91663388888891;2.63279111111111
30986;77;77165;Le Plessis-aux-Bois;49.00374649350648;2.76676090909091
30987;77;77540;Le Plessis-Feu-Aussoux;48.71556101449276;3.04058072463768
30988;77;77165;Le Plessis-l'Évêque;49.00670140350879;2.79298964912281
30989;77;77440;Le Plessis-Placy;49.05136989583335;2.98205781250000
30990;77;77160;Poigny;48.54426355555556;3.27866622222222
30991;77;77470;Poincy;48.97465125000002;2.92332625000000
30992;77;77167;Poligny;48.23678394230767;2.75187807692308
30993;77;77515;Pommeuse;48.81541475000002;3.00862475000000
30994;77;77400;Pomponne;48.88818958333334;2.67416194444444
30995;77;77340;Pontault-Combault;48.78543271317830;2.61469480620155
30996;77;77135;Pontcarré;48.79767619047619;2.70413785714286
30997;77;77410;Précy-sur-Marne;48.93287107142857;2.76913267857143
30998;77;77220;Presles-en-Brie;48.71161104347825;2.74386252173913
30999;77;77310;Pringy;48.51786230769229;2.55010230769231
31000;77;77160;Provins;48.56361138686132;3.29356737226277
31001;77;77139;Puisieux;49.06264706766918;2.91456000000000
31002;77;77720;Quiers;48.61342789473686;2.95875622807018
31003;77;77860;Quincy-Voisins;48.89690111111113;2.87900212121212
31004;77;77370;Rampillon;48.53857055555554;3.07163703703704
31005;77;77550;Réau;48.61166313953486;2.62540406976744
31006;77;77510;Rebais;48.85369614173226;3.23411787401575
31007;77;77760;Recloses;48.33994071428570;2.64693242857143
31008;77;77710;Remauville;48.22171921875002;2.82900390625000
31009;77;77260;Reuil-en-Brie;48.95382636363636;3.16458420454546
31010;77;77000;La Rochette;48.50441895522387;2.66265791044776
31011;77;77680;Roissy-en-Brie;48.78960849462364;2.65045354838710
31012;77;77160;Rouilly;48.58850424999999;3.29147862500000
31013;77;77230;Rouvres;49.06591301587302;2.72010873015873
31014;77;77540;Rozay-en-Brie;48.68328249999999;2.96113861111111
31015;77;77950;Rubelles;48.56662781818181;2.68061545454545
31016;77;77760;Rumont;48.27023999999998;2.49382088235294
31017;77;77560;Rupéreux;48.64218543859648;3.32726122807018
31018;77;77730;Saâcy-sur-Marne;48.95413555555555;3.21150987654321
31019;77;77510;Sablonnières;48.88037097902097;3.29342538461538
31020;77;77710;Saint-Ange-le-Viel;48.27331482142857;2.90328035714286
31021;77;77515;Saint-Augustin;48.79090260273971;3.02824465753425
31022;77;77260;Sainte-Aulde;49.00213874999999;3.17591785714286
31023;77;77320;Saint-Barthélemy;48.82004495049504;3.36273079207921
31024;77;77160;Saint-Brice;48.56421834862384;3.33136605504587
31025;77;77650;Sainte-Colombe;48.53472197802199;3.25798758241758
31026;77;77750;Saint-Cyr-sur-Morin;48.91191952095807;3.17094532934132
31027;77;77510;Saint-Denis-lès-Rebais;48.84272274193548;3.20003524193548
31028;77;77310;Saint-Fargeau-Ponthierry;48.53614183823530;2.52215125000000
31029;77;77470;Saint-Fiacre;48.92462999999999;2.95106838709677
31030;77;77130;Saint-Germain-Laval;48.40990827160493;3.00270604938272
31031;77;77950;Saint-Germain-Laxis;48.58886080000002;2.70576653333333
31032;77;77169;Saint-Germain-sous-Doue;48.85305585185185;3.13032725925926
31033;77;77930;Saint-Germain-sur-École;48.47233916666668;2.51171145833333
31034;77;77860;Saint-Germain-sur-Morin;48.87678797979797;2.83780000000000
31035;77;77160;Saint-Hilliers;48.63479709677420;3.26098505376344
31036;77;77660;Saint-Jean-les-Deux-Jumeaux;48.94268999999998;3.02330681818182
31037;77;77370;Saint-Just-en-Brie;48.60284309523810;3.12688047619048
31038;77;77510;Saint-Léger;48.84249975903614;3.26759795180723
31039;77;77650;Saint-Loup-de-Naud;48.53607489795917;3.22131122448979
31040;77;77670;Saint-Mammès;48.38557781250000;2.82325906250000
31041;77;77230;Saint-Mard;49.04144516666666;2.69973233333333
31042;77;77320;Saint-Mars-Vieux-Maisons;48.73907379629629;3.31857138888889
31043;77;77320;Saint-Martin-des-Champs;48.78368609271525;3.32688483443709
31044;77;77320;Saint-Martin-du-Boschet;48.73745278350513;3.42615773195876
31045;77;77630;Saint-Martin-en-Bière;48.43716032258065;2.57024258064516
31046;77;77720;Saint-Méry;48.56929257575757;2.83740439393939
31047;77;77410;Saint-Mesmes;48.98614929292931;2.69983373737374
31048;77;77720;Saint-Ouen-en-Brie;48.56577438356165;2.92246013698630
31049;77;77750;Saint-Ouen-sur-Morin;48.90422374999999;3.20432925000000
31050;77;77178;Saint-Pathus;49.07425738461537;2.78460138461539
31051;77;77140;Saint-Pierre-lès-Nemours;48.26037214765100;2.66557275167785
31052;77;77320;Saint-Rémy-la-Vanne;48.81194893939392;3.24180946969697
31053;77;77120;Saints;48.75758914893618;3.06125737588653
31054;77;77480;Saint-Sauveur-lès-Bray;48.43768992753624;3.20505739130435
31055;77;77930;Saint-Sauveur-sur-École;48.50185711864406;2.53328084745763
31056;77;77169;Saint-Siméon;48.81123081481483;3.19884614814815
31057;77;77165;Saint-Soupplets;49.03594840000002;2.80130440000000
31058;77;77400;Saint-Thibault-des-Vignes;48.86190357142859;2.67765714285714
31059;77;77148;Salins;48.42150527027027;3.02773608108108
31060;77;77260;Sammeron;48.93833224999999;3.07797725000000
31061;77;77920;Samois-sur-Seine;48.45349553191490;2.75045648936170
31062;77;77210;Samoreau;48.42064177419355;2.77846758064516
31063;77;77580;Sancy;48.88383684210525;2.96107736842105
31064;77;77320;Sancy-lès-Provins;48.71036659793813;3.39408628865979
31065;77;77176;Savigny-le-Temple;48.58078728260871;2.57281978260870
31066;77;77650;Savins;48.50850239130434;3.20766076086956
31067;77;77240;Seine-Port;48.55464239130437;2.55574434782609
31068;77;77260;Sept-Sorts;48.93935190476191;3.10665952380952
31069;77;77700;Serris;48.84639160714284;2.78746696428572
31070;77;77170;Servon;48.71573539325845;2.59109797752809
31071;77;77640;Signy-Signets;48.91599864406779;3.06418830508475
31072;77;77520;Sigy;48.47464126582277;3.16822000000000
31073;77;77115;Sivry-Courtry;48.53363020270267;2.76203527027027
31074;77;77520;Sognolles-en-Montois;48.51845694444447;3.15173037037037
31075;77;77111;Soignolles-en-Brie;48.64623486111114;2.70774333333333
31076;77;77650;Soisy-Bouy;48.51081296703295;3.29849076923077
31077;77;77111;Solers;48.65724648648650;2.72558747747748
31078;77;77460;Souppes-sur-Loing;48.18540085470085;2.74410709401709
31079;77;77171;Sourdun;48.54376486486486;3.35324882882883
31080;77;77440;Tancrou;49.00471385416665;3.07862177083333
31081;77;77520;Thénisy;48.48964163265304;3.17843867346939
31082;77;77230;Thieux;49.00079873563218;2.67002413793103
31083;77;77810;Thomery;48.40541735849057;2.77662188679245
31084;77;77400;Thorigny-sur-Marne;48.89471731343284;2.71173417910448
31085;77;77940;Thoury-Férottes;48.30327969696972;2.94043704545455
31086;77;77163;Tigeaux;48.82746180555555;2.89912236111111
31087;77;77130;La Tombe;48.38823170731708;3.09074853658537
31088;77;77200;Torcy;48.84904906666665;2.65315133333333
31089;77;77131;Touquin;48.72914836363636;3.02973554545455
31090;77;77220;Tournan-en-Brie;48.74253229357797;2.77325917431193
31091;77;77123;Tousson;48.34596559523811;2.45691035714286
31092;77;77510;La Trétoire;48.88200686567165;3.24758649253731
31093;77;77710;Treuzy-Levelay;48.27316242187501;2.79734609375000
31094;77;77450;Trilbardou;48.94706210526314;2.79553539473684
31095;77;77470;Trilport;48.95054513888889;2.96530930555556
31096;77;77440;Trocy-en-Multien;49.04046415730337;2.96506426966292
31097;77;77760;Ury;48.34303661290321;2.59842370967742
31098;77;77260;Ussy-sur-Marne;48.96906436974791;3.08544117647059
31099;77;77360;Vaires-sur-Marne;48.86927622950817;2.63094967213115
31100;77;77830;Valence-en-Brie;48.44680156862744;2.89195676470588
31101;77;77370;Vanvillé;48.55600955223880;3.10997552238806
31102;77;77130;Varennes-sur-Seine;48.37014195402298;2.93841321839081
31103;77;77910;Varreddes;49.00494339622644;2.92773622641509
31104;77;77580;Vaucourtois;48.89876574468083;2.95480361702128
31105;77;77123;Le Vaudoué;48.34462580246914;2.52085592592593
31106;77;77141;Vaudoy-en-Brie;48.69848984615385;3.07974661538461
31107;77;77000;Vaux-le-Pénil;48.51978528846156;2.70130596153846
31108;77;77710;Vaux-sur-Lunain;48.21621364341086;2.95883085271318
31109;77;77440;Vendrest;49.04124763636366;3.11005354545454
31110;77;77510;Verdelot;48.88077619469025;3.36847517699115
31111;77;77390;Verneuil-l'Étang;48.63685435897438;2.82234897435897
31112;77;77670;Vernou-la-Celle-sur-Seine;48.40303247706424;2.86269550458716
31113;77;77240;Vert-Saint-Denis;48.56568892473117;2.62781440860215
31114;77;77370;Vieux-Champagne;48.58688864197532;3.13575432098765
31115;77;77450;Vignely;48.93266793103449;2.81321172413793
31116;77;77710;Villebéon;48.20491349514560;2.92770757281553
31117;77;77250;Villecerf;48.32730294117648;2.85564784313726
31118;77;77710;Villemaréchal;48.27168523437498;2.86643273437500
31119;77;77470;Villemareuil;48.92431806451614;2.97668209677419
31120;77;77250;Villemer;48.30510986577181;2.81272543624161
31121;77;77480;Villenauxe-la-Petite;48.39860033112581;3.30737728476821
31122;77;77174;Villeneuve-le-Comte;48.81450833333334;2.82881523809524
31123;77;77154;Villeneuve-les-Bordes;48.50216427184466;3.03065271844660
31124;77;77174;Villeneuve-Saint-Denis;48.81289560606060;2.79745863636364
31125;77;77230;Villeneuve-sous-Dammartin;49.02833507692308;2.63111123076923
31126;77;77510;Villeneuve-sur-Bellot;48.87527761538463;3.33212007692308
31127;77;77124;Villenoy;48.94683162790697;2.85560534883721
31128;77;77270;Villeparisis;48.93713088235296;2.61954970588235
31129;77;77410;Villeroy;48.98763310344827;2.77414706896552
31130;77;77130;Ville-Saint-Jacques;48.34472529411764;2.89986264705882
31131;77;77410;Villevaudé;48.91419776859507;2.66206867768595
31132;77;77190;Villiers-en-Bière;48.49197310344827;2.59759586206897
31133;77;77560;Villiers-Saint-Georges;48.65151710526315;3.41670223684210
31134;77;77760;Villiers-sous-Grez;48.31558218181819;2.63161618181818
31135;77;77580;Villiers-sur-Morin;48.85271967741937;2.87026559139785
31136;77;77114;Villiers-sur-Seine;48.45929304568529;3.38317233502538
31137;77;77480;Villuis;48.39795632653061;3.35798244897959
31138;77;77520;Vimpelles;48.43941444444442;3.16866673611111
31139;77;77230;Vinantes;49.00330250000001;2.74192541666667
31140;77;77139;Vincy-Manœuvre;49.07763530120484;2.95484626506024
31141;77;77540;Voinsles;48.68329425925927;3.01437268518519
31142;77;77950;Voisenon;48.56952441860464;2.66272604651163
31143;77;77580;Voulangis;48.84410512820516;2.89541589743590
31144;77;77560;Voulton;48.61657290909090;3.33344927272727
31145;77;77940;Voulx;48.28310504000001;2.97139592000000
31146;77;77160;Vulaines-lès-Provins;48.56029728260872;3.21555836956522
31147;77;77870;Vulaines-sur-Seine;48.42947446153847;2.77787907692308
31148;77;77390;Yèbles;48.63949653846155;2.76778192307692
31149;78;78660;Ablis;48.53102966386555;1.84591924369748
31150;78;78260;Achères;48.97537833333333;2.10607558823529
31151;78;78113;Adainville;48.72317568181816;1.66216920454545
31152;78;78240;Aigremont;48.90039698113208;2.01630169811321
31153;78;78660;Allainville;48.46851605769229;1.90539721153846
31154;78;78580;Les Alluets-le-Roi;48.91438612244900;1.91531224489796
31155;78;78770;Andelu;48.88548281250000;1.81555937500000
31156;78;78570;Andrésy;48.98097977777778;2.05125222222222
31157;78;78790;Arnouville-lès-Mantes;48.90962357894735;1.72124610526316
31158;78;78410;Aubergenville;48.96151640350877;1.84637719298246
31159;78;78610;Auffargis;48.68418320388351;1.90534631067961
31160;78;78930;Auffreville-Brasseuil;48.95593285714286;1.70753071428571
31161;78;78126;Aulnay-sur-Mauldre;48.93021265625000;1.84104421875000
31162;78;78770;Auteuil;48.84443754716982;1.81982396226415
31163;78;78770;Autouillet;48.84625687499999;1.79723000000000
31164;78;78870;Bailly;48.83534967741934;2.07632854838710
31165;78;78550;Bazainville;48.80939741666666;1.66454975000000
31166;78;78580;Bazemont;48.92963633802816;1.87371563380282
31167;78;78490;Bazoches-sur-Guyonne;48.77511739726027;1.85570616438356
31168;78;78910;Béhoust;48.83236173913043;1.72257347826087
31169;78;78270;Bennecourt;49.04572369863013;1.56485452054794
31170;78;78650;Beynes;48.85749779527562;1.87285645669291
31171;78;78270;Blaru;49.04323774193549;1.48095408602151
31172;78;78930;Boinville-en-Mantois;48.93064932432433;1.75341540540541
31173;78;78660;Boinville-le-Gaillard;48.49358450980393;1.87839588235294
31174;78;78200;Boinvilliers;48.91972203389830;1.66379220338983
31175;78;78390;Bois-d'Arcy;48.80682482758619;2.02647379310345
31176;78;78910;Boissets;48.85886638297873;1.58791531914894
31177;78;78125;La Boissière-École;48.68812737704917;1.65827286885246
31178;78;78200;Boissy-Mauvoisin;48.96842290322580;1.58782822580645
31179;78;78490;Boissy-sans-Avoir;48.81807161290321;1.79756758064516
31180;78;78830;Bonnelles;48.62017165217392;2.03204226086956
31181;78;78270;Bonnières-sur-Seine;49.01592028301886;1.56812405660377
31182;78;78410;Bouafle;48.96212012195122;1.89981329268293
31183;78;78380;Bougival;48.86360732394365;2.13832873239437
31184;78;78113;Bourdonné;48.75542212962964;1.64634342592593
31185;78;78930;Breuil-Bois-Robert;48.94643243589746;1.71439025641026
31186;78;78980;Bréval;48.95612835051545;1.54568000000000
31187;78;78610;Les Bréviaires;48.72532218390804;1.82282367816092
31188;78;78440;Brueil-en-Vexin;49.02668485294119;1.81313294117647
31189;78;78530;Buc;48.77262500000002;2.12520964285714
31190;78;78200;Buchelay;48.98204907407407;1.67768870370370
31191;78;78830;Bullion;48.61925054054056;1.98109797297297
31192;78;78955;Carrières-sous-Poissy;48.94895534883721;2.03165093023256
31193;78;78420;Carrières-sur-Seine;48.91427512820511;2.17693897435897
31194;78;78720;La Celle-les-Bordes;48.64564244094491;1.94944409448819
31195;78;78170;La Celle-Saint-Cloud;48.85133409638556;2.13845530120482
31196;78;78720;Cernay-la-Ville;48.67004935483871;1.95853717741935
31197;78;78240;Chambourcy;48.89950533333334;2.03077550000000
31198;78;78570;Chanteloup-les-Vignes;48.97539742424243;2.03103651515152
31199;78;78130;Chapet;48.96728125000001;1.93808750000000
31200;78;78117;Châteaufort;48.73704383177572;2.09546504672897
31201;78;78400;Chatou;48.89936254545453;2.15183400000000
31202;78;78270;Chaufour-lès-Bonnières;49.01800935483871;1.48395838709677
31203;78;78450;Chavenay;48.85058855421686;1.98195313253012
31204;78;78150;Le Chesnay;48.82665027027026;2.12770270270270
31205;78;78460;Chevreuse;48.70825169811322;2.03938339622642
31206;78;78460;Choisel;48.67699999999999;2.01650947368421
31207;78;78910;Civry-la-Forêt;48.86516456521741;1.61802695652174
31208;78;78120;Clairefontaine-en-Yvelines;48.61744626262627;1.90449535353535
31209;78;78340;Les Clayes-sous-Bois;48.81602072727274;1.98309454545454
31210;78;78310;Coignières;48.74980257425745;1.91355198019802
31211;78;78113;Condé-sur-Vesgre;48.73366542635657;1.65903488372093
31212;78;78700;Conflans-Sainte-Honorine;48.99711067796609;2.09557220338983
31213;78;78790;Courgent;48.89641500000000;1.65861651515151
31214;78;78270;Cravent;48.99012134328356;1.48526910447761
31215;78;78121;Crespières;48.88142445783134;1.91622891566265
31216;78;78290;Croissy-sur-Seine;48.87691360000001;2.13433240000000
31217;78;78111;Dammartin-en-Serve;48.90556128000001;1.61514720000000
31218;78;78720;Dampierre-en-Yvelines;48.70825963302752;1.97073623853211
31219;78;78550;Dannemarie;48.76331099999999;1.60880800000000
31220;78;78810;Davron;48.86726634615383;1.95078346153846
31221;78;78440;Drocourt;49.05498480769230;1.77144653846154
31222;78;78920;Ecquevilly;48.95149329545455;1.92253670454545
31223;78;78990;Élancourt;48.77750554687500;1.95799414062500
31224;78;78125;Émancé;48.59604944444446;1.73450416666667
31225;78;78680;Épône;48.95117504000005;1.81821576000000
31226;78;78690;Les Essarts-le-Roi;48.71512533333335;1.90958458333333
31227;78;78620;L'Étang-la-Ville;48.86905903846154;2.06918865384615
31228;78;78740;Évecquemont;49.01697984848486;1.94268939393939
31229;78;78410;La Falaise;48.94079833333335;1.82647217948718
31230;78;78200;Favrieux;48.94501339285715;1.63928285714286
31231;78;78810;Feucherolles;48.87694920000001;1.97364390000000
31232;78;78200;Flacourt;48.93285310344829;1.64606931034483
31233;78;78910;Flexanville;48.85613739999999;1.74193120000000
31234;78;78790;Flins-Neuve-Église;48.89158687500000;1.57674812500000
31235;78;78410;Flins-sur-Seine;48.96418492753624;1.87314289855072
31236;78;78520;Follainville-Dennemont;49.02432831168831;1.70583987012987
31237;78;78330;Fontenay-le-Fleury;48.81469124999999;2.04500546875000
31238;78;78200;Fontenay-Mauvoisin;48.95948735294117;1.64625176470588
31239;78;78440;Fontenay-Saint-Père;49.03098122807018;1.75769491228070
31240;78;78112;Fourqueux;48.88889058823530;2.06057500000000
31241;78;78840;Freneuse;49.04222262295082;1.60528475409836
31242;78;78250;Gaillon-sur-Montcient;49.02569372093024;1.89822186046512
31243;78;78490;Galluis;48.80156513513514;1.79058783783784
31244;78;78950;Gambais;48.77812680851063;1.66574468085107
31245;78;78490;Gambaiseuil;48.75941283783784;1.71566243243243
31246;78;78890;Garancières;48.82148590361446;1.75790614457831
31247;78;78440;Gargenville;48.99215390625002;1.81182562500000
31248;78;78125;Gazeran;48.63384972972974;1.78262189189189
31249;78;78270;Gommecourt;49.07336154929578;1.59365394366197
31250;78;78770;Goupillières;48.87980956521739;1.76393978260870
31251;78;78930;Goussonville;48.92730089552238;1.76879402985075
31252;78;78113;Grandchamp;48.72103369565216;1.61726347826087
31253;78;78550;Gressey;48.83353150000001;1.60450750000000
31254;78;78490;Grosrouvre;48.77858276595745;1.76011957446809
31255;78;78520;Guernes;49.01817158730161;1.64406936507937
31256;78;78930;Guerville;48.95267485714285;1.74102847619048
31257;78;78440;Guitrancourt;49.00657319444444;1.77729375000000
31258;78;78280;Guyancourt;48.77312885714286;2.07325700000000
31259;78;78250;Hardricourt;49.01082596491229;1.88580263157895
31260;78;78790;Hargeville;48.89752885245901;1.74421508196721
31261;78;78113;La Hauteville;48.70472538461537;1.62646415384615
31262;78;78580;Herbeville;48.90436068181819;1.88640284090909
31263;78;78125;Hermeray;48.65057765432098;1.69100135802469
31264;78;78550;Houdan;48.79496272727273;1.59634966942149
31265;78;78800;Houilles;48.92719976744184;2.18887093023256
31266;78;78440;Issou;48.98897354166666;1.78805375000000
31267;78;78440;Jambville;49.04953962962962;1.84678611111111
31268;78;78270;Jeufosse;49.03435339622639;1.54153679245283
31269;78;78760;Jouars-Pontchartrain;48.78366088709677;1.90723064516129
31270;78;78350;Jouy-en-Josas;48.76179838095238;2.15938542857143
31271;78;78200;Jouy-Mauvoisin;48.97382079999999;1.64433080000000
31272;78;78580;Jumeauville;48.90910871794871;1.78599333333333
31273;78;78820;Juziers;49.00257737499999;1.84374112500000
31274;78;78440;Lainville-en-Vexin;49.06066703125000;1.81579828125000
31275;78;78320;Lévis-Saint-Nom;48.72628972972972;1.93632360360360
31276;78;78520;Limay;48.99411500000000;1.73970984375000
31277;78;78270;Limetz-Villez;49.06556290322580;1.54869763440860
31278;78;78350;Les Loges-en-Josas;48.76210934782610;2.14076217391304
31279;78;78270;Lommoye;48.99704144230770;1.52202076923077
31280;78;78980;Longnes;48.92017582417582;1.57540010989011
31281;78;78730;Longvilliers;48.57869471830982;2.00262190140845
31282;78;78430;Louveciennes;48.86115724637681;2.11558666666667
31283;78;78200;Magnanville;48.96897489795919;1.68502061224490
31284;78;78114;Magny-les-Hameaux;48.73847076470589;2.05758888235294
31285;78;78600;Maisons-Laffitte;48.95218069767444;2.14459418604651
31286;78;78200;Mantes-la-Jolie;48.99444294117646;1.70188745098039
31287;78;78711;Mantes-la-Ville;48.97293831460672;1.71209011235955
31288;78;78770;Marcq;48.86250796610170;1.82357406779661
31289;78;78490;Mareil-le-Guyon;48.79238745098039;1.85368333333333
31290;78;78750;Mareil-Marly;48.87999222222222;2.07550222222222
31291;78;78124;Mareil-sur-Mauldre;48.89070405940594;1.87313940594059
31292;78;78160;Marly-le-Roi;48.86901045454544;2.09212943181818
31293;78;78580;Maule;48.91054130000001;1.84784010000000
31294;78;78550;Maulette;48.78437209302329;1.61609325581395
31295;78;78780;Maurecourt;48.99741480769229;2.05216576923077
31296;78;78310;Maurepas;48.77251333333335;1.93126071428571
31297;78;78670;Médan;48.95334970149254;1.98706656716418
31298;78;78200;Ménerville;48.95698311111111;1.59643866666667
31299;78;78490;Méré;48.79756616279071;1.82300104651163
31300;78;78270;Méricourt;49.03627600000000;1.62235228571429
31301;78;78600;Le Mesnil-le-Roi;48.92728277777777;2.11903592592593
31302;78;78320;Le Mesnil-Saint-Denis;48.74025620689654;1.96305462068965
31303;78;78490;Les Mesnuls;48.75546686567163;1.83558253731343
31304;78;78250;Meulan-en-Yvelines;49.00723117647060;1.90998607843137
31305;78;78970;Mézières-sur-Seine;48.94949460674157;1.78001483146067
31306;78;78250;Mézy-sur-Seine;49.00253500000000;1.86966378787879
31307;78;78940;Millemont;48.80930942857143;1.72694400000000
31308;78;78470;Milon-la-Chapelle;48.72799369230770;2.04409669230769
31309;78;78125;Mittainville;48.66434011494253;1.63185781609195
31310;78;78840;Moisson;49.07022142857146;1.66931551020408
31311;78;78980;Mondreville;48.90266714285714;1.55462242857143
31312;78;78124;Montainville;48.87923077922079;1.86034974025974
31313;78;78440;Montalet-le-Bois;49.04530657142857;1.82850171428571
31314;78;78790;Montchauvet;48.89236493243242;1.62946567567568
31315;78;78360;Montesson;48.91210265306121;2.14510367346939
31316;78;78490;Montfort-l'Amaury;48.77186108695651;1.81622869565217
31317;78;78180;Montigny-le-Bretonneux;48.77569290000001;2.02841160000000
31318;78;78630;Morainvilliers;48.93201999999999;1.94749900900901
31319;78;78270;Mousseaux-sur-Seine;49.04726896551725;1.65420551724138
31320;78;78790;Mulcent;48.88023600000000;1.64983520000000
31321;78;78130;Les Mureaux;48.98262483870968;1.91323629032258
31322;78;78640;Neauphle-le-Château;48.81112976744187;1.90327697674419
31323;78;78640;Neauphle-le-Vieux;48.81590016000000;1.86145336000000
31324;78;78980;Neauphlette;48.93530860000003;1.54118890000000
31325;78;78410;Nézel;48.94219410714284;1.83873607142857
31326;78;78590;Noisy-le-Roi;48.84277874999999;2.05444937500000
31327;78;78250;Oinville-sur-Montcient;49.02375960784314;1.84732313725490
31328;78;78125;Orcemont;48.59736839622640;1.80617641509434
31329;78;78910;Orgerus;48.83682853146851;1.69862629370629
31330;78;78630;Orgeval;48.92016764705883;1.96699588235294
31331;78;78125;Orphin;48.57873282828283;1.78543616161616
31332;78;78660;Orsonville;48.47682950819671;1.82400573770492
31333;78;78910;Orvilliers;48.85534367647060;1.64363897058824
31334;78;78910;Osmoy;48.86458941176472;1.71980235294118
31335;78;78660;Paray-Douaville;48.45754070175439;1.86086929824561
31336;78;78230;Le Pecq;48.89238477611940;2.10225522388060
31337;78;78200;Perdreauville;48.97210968253967;1.61422912698413
31338;78;78610;Le Perray-en-Yvelines;48.69177939999999;1.84310760000000
31339;78;78370;Plaisir;48.81073598130840;1.95189962616822
31340;78;78125;Poigny-la-Forêt;48.67736594936710;1.76069291139240
31341;78;78300;Poissy;48.92316525925926;2.02711400000000
31342;78;78730;Ponthévrard;48.54868380952383;1.91212825396825
31343;78;78440;Porcheville;48.97429575000000;1.76651900000000
31344;78;78560;Le Port-Marly;48.87867333333333;2.10786566666667
31345;78;78270;Port-Villez;49.06967706666669;1.51344213333333
31346;78;78910;Prunay-le-Temple;48.86024619047618;1.67261666666667
31347;78;78660;Prunay-en-Yvelines;48.52177761061947;1.80807584070797
31348;78;78940;La Queue-les-Yvelines;48.80352376623378;1.77101675324675
31349;78;78125;Raizeux;48.63420063291140;1.68474873417722
31350;78;78120;Rambouillet;48.65014738805969;1.83551238805970
31351;78;78590;Rennemoulin;48.83426611111112;2.04308194444444
31352;78;78550;Richebourg;48.82612635416667;1.63544375000000
31353;78;78730;Rochefort-en-Yvelines;48.59550173228348;1.98951440944882
31354;78;78150;Rocquencourt;48.83433097560975;2.10870487804878
31355;78;78270;Rolleboise;49.01928021739130;1.59940456521739
31356;78;78790;Rosay;48.91236765432098;1.68373666666667
31357;78;78710;Rosny-sur-Seine;48.99732076271187;1.59875661016949
31358;78;78440;Sailly;49.04495655172413;1.79690206896552
31359;78;78730;Saint-Arnoult-en-Yvelines;48.57282850393700;1.93433614173228
31360;78;78210;Saint-Cyr-l'École;48.80859829268294;2.06584219512195
31361;78;78720;Saint-Forget;48.71389708333334;1.99478666666667
31362;78;78640;Saint-Germain-de-la-Grange;48.83524171052633;1.90434907894737
31363;78;78100;Saint-Germain-en-Laye;48.92747713483146;2.09321286516854
31364;78;78125;Saint-Hilarion;48.61935789915967;1.71552815126050
31365;78;78980;Saint-Illiers-la-Ville;48.97955540983608;1.54646868852459
31366;78;78980;Saint-Illiers-le-Bois;48.96175000000000;1.50935940000000
31367;78;78470;Saint-Lambert;48.73292999999998;2.01199947368421
31368;78;78610;Saint-Léger-en-Yvelines;48.74068272727275;1.77649465909091
31369;78;78660;Saint-Martin-de-Bréthencourt;48.51677598214285;1.92522312500000
31370;78;78790;Saint-Martin-des-Champs;48.87471015151515;1.71597515151515
31371;78;78520;Saint-Martin-la-Garenne;49.03332580952380;1.67452361904762
31372;78;78730;Sainte-Mesme;48.53625696202533;1.94653734177215
31373;78;78860;Saint-Nom-la-Bretèche;48.85870253968254;2.01602904761905
31374;78;78470;Saint-Rémy-lès-Chevreuse;48.70220134615386;2.07555365384616
31375;78;78690;Saint-Rémy-l'Honoré;48.75225216666669;1.87810100000000
31376;78;78500;Sartrouville;48.93831741935482;2.18091016129032
31377;78;78650;Saulx-Marchais;48.84383375000001;1.83523000000000
31378;78;78720;Senlisse;48.68231173076921;1.97339875000000
31379;78;78790;Septeuil;48.88924709999999;1.67900700000000
31380;78;78200;Soindres;48.95304828571428;1.66978328571429
31381;78;78120;Sonchamp;48.58501705128207;1.87399570512821
31382;78;78910;Tacoignières;48.83135044444445;1.66452844444444
31383;78;78113;Le Tartre-Gaudran;48.69770740740741;1.60572333333333
31384;78;78980;Le Tertre-Saint-Denis;48.94408055555557;1.60896583333333
31385;78;78250;Tessancourt-sur-Aubette;49.02213000000000;1.92112847826087
31386;78;78850;Thiverval-Grignon;48.84167487394961;1.92880831932773
31387;78;78770;Thoiry;48.86886696428569;1.79913464285714
31388;78;78790;Tilly;48.87967270588234;1.57047070588235
31389;78;78117;Toussus-le-Noble;48.74636775862069;2.11659672413793
31390;78;78190;Trappes;48.77304956521739;1.99081032608696
31391;78;78490;Le Tremblay-sur-Mauldre;48.77992323076923;1.87832030769231
31392;78;78510;Triel-sur-Seine;48.97804088495575;2.00903628318584
31393;78;78740;Vaux-sur-Seine;49.01075712328768;1.96721260273973
31394;78;78140;Vélizy-Villacoublay;48.78307144927538;2.20120739130435
31395;78;78480;Verneuil-sur-Seine;48.98127825000002;1.96593050000000
31396;78;78540;Vernouillet;48.96550000000000;1.97599000000000
31397;78;78320;La Verrière;48.75430265306122;1.95491836734694
31398;78;78000;Versailles;48.80194537190080;2.13053859504132
31399;78;78930;Vert;48.93929627906978;1.68563348837209
31400;78;78110;Le Vésinet;48.89540818181820;2.12904181818182
31401;78;78490;Vicq;48.81844014084506;1.82806267605634
31402;78;78125;Vieille-Église-en-Yvelines;48.66913724637683;1.87586057971015
31403;78;78270;La Villeneuve-en-Chevrie;49.01316821138212;1.53789560975610
31404;78;78670;Villennes-sur-Seine;48.93827814285716;1.99654685714286
31405;78;78450;Villepreux;48.83109933333335;2.01681573333333
31406;78;78930;Villette;48.92623227848100;1.69453987341772
31407;78;78770;Villiers-le-Mahieu;48.85524544303798;1.77159316455696
31408;78;78640;Villiers-Saint-Frédéric;48.81972162790699;1.87950558139535
31409;78;78220;Viroflay;48.80202438596492;2.17013684210526
31410;78;78960;Voisins-le-Bretonneux;48.75841355932204;2.04384000000000
35099;91;91150;Abbéville-la-Rivière;48.34096299999999;2.18532400000000
35100;91;91670;Angerville;48.30345747663551;2.00264289719626
35101;91;91470;Angervilliers;48.59106406976743;2.06287139534884
35102;91;91290;Arpajon;48.58958915492958;2.24373633802817
35103;91;91690;Arrancourt;48.33017858823529;2.15465905882353
35104;91;91200;Athis-Mons;48.70978985507246;2.38718840579710
35105;91;91410;Authon-la-Plaine;48.45822517857143;1.95285589285714
35106;91;91830;Auvernaux;48.52839975308639;2.48897296296296
35107;91;91580;Auvers-Saint-Georges;48.48273134751770;2.22659056737589
35108;91;91630;Avrainville;48.55372015873018;2.24702793650794
35109;91;91160;Ballainvilliers;48.67473181818182;2.29232227272727
35110;91;91610;Ballancourt-sur-Essonne;48.52600249999998;2.38681108695652
35111;91;91590;Baulne;48.49285876923079;2.37548823076923
35112;91;91570;Bièvres;48.76111577777778;2.21011911111111
35113;91;91150;Blandy;48.32109927272727;2.25783345454545
35114;91;91720;Boigneville;48.32750718181820;2.37529572727273
35115;91;91150;Bois-Herpin;48.37492283333332;2.24515700000000
35116;91;91690;Boissy-la-Rivière;48.38489903703703;2.16556259259259
35117;91;91590;Boissy-le-Cutté;48.46925919999999;2.28075346666667
35118;91;91870;Boissy-le-Sec;48.48621880000000;2.09180432000000
35119;91;91790;Boissy-sous-Saint-Yon;48.55091187500002;2.21102296875000
35120;91;91070;Bondoufle;48.61447589743590;2.37982871794872
35121;91;91470;Boullay-les-Troux;48.67680472222224;2.05192097222222
35122;91;91850;Bouray-sur-Juine;48.51400421686748;2.29658831325301
35123;91;91800;Boussy-Saint-Antoine;48.69137508474575;2.53664033898305
35124;91;91150;Boutervilliers;48.45404416666666;2.05210736111111
35125;91;91820;Boutigny-sur-Essonne;48.43110729729729;2.39035171171171
35126;91;91880;Bouville;48.43522883435582;2.27708325153374
35127;91;91220;Brétigny-sur-Orge;48.60436718518520;2.29974755555556
35128;91;91650;Breuillet;48.57444844036697;2.16796394495413
35129;91;91650;Breux-Jouy;48.55187095238095;2.16253440476190
35130;91;91150;Brières-les-Scellés;48.46328000000002;2.14633168831169
35131;91;91640;Briis-sous-Forges;48.62717736842107;2.12998557894737
35132;91;91150;Brouy;48.32643342105263;2.29398065789474
35133;91;91800;Brunoy;48.70382642857141;2.50899042857143
35134;91;91680;Bruyères-le-Châtel;48.59355523809524;2.18545469387755
35135;91;91720;Buno-Bonnevaux;48.35822058823531;2.39996838235294
35136;91;91440;Bures-sur-Yvette;48.69129737931034;2.15627372413793
35137;91;91590;Cerny;48.48937522388059;2.31048276119403
35138;91;91780;Chalo-Saint-Mars;48.42009373493978;2.05702114457831
35139;91;91740;Chalou-Moulineux;48.38354318840582;2.02746956521739
35140;91;91730;Chamarande;48.51331940298509;2.22474268656716
35141;91;91750;Champcueil;48.50584250000001;2.44852479166667
35142;91;91160;Champlan;48.70458119402984;2.27765791044776
35143;91;91150;Champmotteux;48.34438746666666;2.31254346666667
35144;91;91410;Chatignonville;48.46946896551726;1.93220931034483
35145;91;91580;Chauffour-lès-Étréchy;48.50533333333333;2.17325347826087
35146;91;91630;Cheptainville;48.54428267857143;2.27462000000000
35147;91;91750;Chevannes;48.53295043478261;2.44201811594203
35148;91;91380;Chilly-Mazarin;48.70419380952382;2.30919492063492
35149;91;91100;Corbeil-Essonnes;48.59955185430459;2.46848913907285
35150;91;91410;Corbreuse;48.50214007812499;1.96276132812500
35151;91;91830;Le Coudray-Montceaux;48.56280823529414;2.49029882352941
35152;91;91490;Courances;48.43971776470588;2.48603247058823
35153;91;91080;Courcouronnes;48.62365298245614;2.40965578947368
35154;91;91720;Courdimanche-sur-Essonne;48.41723690476190;2.36312738095238
35155;91;91680;Courson-Monteloup;48.59798333333334;2.13999315789474
35156;91;91560;Crosne;48.72054125000000;2.46103013888889
35157;91;91490;Dannemois;48.45940857142859;2.46830714285714
35158;91;91590;D'Huison-Longueville;48.45735661290323;2.33128959677419
35159;91;91410;Dourdan;48.53459128099180;1.98707078512397
35160;91;91210;Draveil;48.67974837209303;2.42197209302326
35161;91;91540;Écharcon;48.57352554054053;2.40263797297297
35162;91;91520;Égly;48.57930417721520;2.21937126582278
35163;91;91860;Épinay-sous-Sénart;48.69172418604653;2.52057860465116
35164;91;91360;Épinay-sur-Orge;48.67043637681159;2.32192463768116
35165;91;91660;Estouches;48.31029216216216;2.13598081081081
35166;91;91150;Étampes;48.42446752767525;2.14598468634687
35167;91;91450;Étiolles;48.64600478873240;2.48191464788732
35168;91;91580;Étréchy;48.49450124183005;2.18387627450980
35169;91;91000;Évry;48.62883936507937;2.43909063492063
35170;91;91590;La Ferté-Alais;48.48207158536586;2.36141475609756
35171;91;91700;Fleury-Mérogis;48.63332228070177;2.36923087719298
35172;91;91690;Fontaine-la-Rivière;48.35807476190478;2.15591273809524
35173;91;91640;Fontenay-lès-Briis;48.61267902654868;2.16605371681416
35174;91;91540;Fontenay-le-Vicomte;48.54894441176472;2.39887088235294
35175;91;91410;La Forêt-le-Roi;48.47647333333335;2.04766260869565
35176;91;91150;La Forêt-Sainte-Croix;48.38617000000000;2.22981963636364
35177;91;91470;Forges-les-Bains;48.62272657657657;2.08098027027027
35178;91;91190;Gif-sur-Yvette;48.69728484042555;2.13261079787234
35179;91;91720;Gironville-sur-Essonne;48.36880562962965;2.35458696296296
35180;91;91400;Gometz-la-Ville;48.67866761061948;2.10861389380531
35181;91;91940;Gometz-le-Châtel;48.67781433333333;2.14346500000000
35182;91;91410;Les Granges-le-Roi;48.49880225490195;2.00798117647059
35183;91;91350;Grigny;48.65358200000001;2.38849657142857
35184;91;91630;Guibeville;48.56829477272727;2.27468590909091
35185;91;91590;Guigneville-sur-Essonne;48.46308504854369;2.35994378640777
35186;91;91690;Guillerval;48.36005294736841;2.08082073684210
35187;91;91430;Igny;48.73663467532468;2.22330012987013
35188;91;91760;Itteville;48.51536784431136;2.34749311377246
35189;91;91510;Janville-sur-Juine;48.50218175572519;2.25093480916031
35190;91;91640;Janvry;48.64807514285715;2.15794028571428
35191;91;91260;Juvisy-sur-Orge;48.69226728813559;2.37211881355932
35192;91;91510;Lardy;48.52461872727272;2.26438090909091
35193;91;91630;Leudeville;48.57299285714288;2.32958648351648
35194;91;91310;Leuville-sur-Orge;48.61408791666666;2.27036520833333
35195;91;91470;Limours;48.64583058333332;2.07928375000000
35196;91;91310;Linas;48.62703382716050;2.25404271604938
35197;91;91090;Lisses;48.59461043478263;2.42463086956522
35198;91;91160;Longjumeau;48.69200917525772;2.29953814432990
35199;91;91310;Longpont-sur-Orge;48.63531383838385;2.28859949494949
35200;91;91720;Maisse;48.39865908496733;2.38212071895425
35201;91;91460;Marcoussis;48.64672654867256;2.20700592920354
35202;91;91150;Marolles-en-Beauce;48.36867093023255;2.20994000000000
35203;91;91630;Marolles-en-Hurepoix;48.56527794117648;2.29833602941176
35204;91;91300;Massy;48.73085635135136;2.26797243243243
35205;91;91730;Mauchamps;48.53136128205129;2.19446717948718
35206;91;91540;Mennecy;48.56138717647057;2.43379835294118
35207;91;91660;Méréville;48.32248928571427;2.08363223214286
35208;91;91780;Mérobert;48.41986245901640;1.99503868852459
35209;91;91150;Mespuits;48.36075605263157;2.28183065789474
35210;91;91490;Milly-la-Forêt;48.40291180232556;2.45240715116279
35211;91;91490;Moigny-sur-École;48.43638799999999;2.44150677777778
35212;91;91470;Les Molières;48.67149556701032;2.06831804123711
35213;91;91590;Mondeville;48.49025148936170;2.41727425531915
35214;91;91930;Monnerville;48.34644000000000;2.04382358490566
35215;91;91230;Montgeron;48.69972402298852;2.45900471264368
35216;91;91310;Montlhéry;48.64134882352942;2.27024264705882
35217;91;91420;Morangis;48.70160642857143;2.33342809523809
35218;91;91150;Morigny-Champigny;48.44114660000002;2.20242610000000
35219;91;91390;Morsang-sur-Orge;48.65964709677420;2.35639838709677
35220;91;91250;Morsang-sur-Seine;48.57799181818181;2.50335272727273
35221;91;91750;Nainville-les-Roches;48.50776676470587;2.49646838235294
35222;91;91290;La Norville;48.57963948051948;2.26679090909091
35223;91;91620;Nozay;48.66088344827585;2.24225241379310
35224;91;91340;Ollainville;48.60377151515147;2.21860030303030
35225;91;91490;Oncy-sur-École;48.37914848484849;2.45153393939394
35226;91;91540;Ormoy;48.57562480769230;2.45843961538462
35227;91;91150;Ormoy-la-Rivière;48.40057557894733;2.15734947368421
35228;91;91400;Orsay;48.69565351063829;2.18802212765957
35229;91;91590;Orveau;48.44827192307694;2.29560307692308
35230;91;91120;Palaiseau;48.71157669354837;2.22626879032258
35231;91;91550;Paray-Vieille-Poste;48.71254050000000;2.36338530000000
35232;91;94390;Paray-Vieille-Poste;48.73014630000000;2.36205190000000
35233;91;91470;Pecqueuse;48.64523342342343;2.03757774774775
35234;91;91220;Le Plessis-Pâté;48.60346680000000;2.34140146666667
35235;91;91410;Plessis-Saint-Benoist;48.44260053571428;2.00766089285714
35236;91;91720;Prunay-sur-Essonne;48.35342812500001;2.36598421875000
35237;91;91150;Puiselet-le-Marais;48.39648072916669;2.26388989583333
35238;91;91740;Pussay;48.35680346666668;1.99846853333333
35239;91;91480;Quincy-sous-Sénart;48.67557422222223;2.53466755555556
35240;91;91410;Richarville;48.47101242857143;2.00105300000000
35241;91;91130;Ris-Orangis;48.64168343749999;2.40548046875000
35242;91;91410;Roinville;48.51540618556701;2.05348969072165
35243;91;91150;Roinvilliers;48.34100506172839;2.23727135802469
35244;91;91690;Saclas;48.36084295597485;2.11545534591195
35245;91;91400;Saclay;48.73642230000000;2.16527370000000
35246;91;91190;Saint-Aubin;48.71474305084747;2.13681457627119
35247;91;91530;Saint-Chéron;48.54503109999999;2.12651360000000
35248;91;91690;Saint-Cyr-la-Rivière;48.35717060150375;2.14423932330827
35249;91;91410;Saint-Cyr-sous-Dourdan;48.56741666666667;2.03850148148148
35250;91;91410;Saint-Escobille;48.42274876712329;1.95702287671233
35251;91;91700;Sainte-Geneviève-des-Bois;48.64376616438355;2.32310931506849
35252;91;91180;Saint-Germain-lès-Arpajon;48.59781976190474;2.26658261904762
35253;91;91250;Saint-Germain-lès-Corbeil;48.62425053571427;2.48878785714286
35254;91;91780;Saint-Hilaire;48.43975365853659;2.08345158536585
35255;91;91940;Saint-Jean-de-Beauregard;48.66550507246378;2.17516130434783
35256;91;91530;Saint-Maurice-Montcouronne;48.57891991596639;2.12283512605042
35257;91;91240;Saint-Michel-sur-Orge;48.63318058823530;2.31146294117647
35258;91;91280;Saint-Pierre-du-Perray;48.60581261363636;2.51104386363636
35259;91;91250;Saintry-sur-Seine;48.59307250000000;2.49568125000000
35260;91;91910;Saint-Sulpice-de-Favières;48.53683324675324;2.17750532467532
35261;91;91770;Saint-Vrain;48.53228016949152;2.32684974576271
35262;91;91650;Saint-Yon;48.56039763888888;2.18921541666667
35263;91;91160;Saulx-les-Chartreux;48.68950492063493;2.26766809523810
35264;91;91600;Savigny-sur-Orge;48.68319721518986;2.35033189873418
35265;91;91530;Sermaise;48.53053582417583;2.09173824175824
35266;91;91840;Soisy-sur-École;48.47935292134834;2.47883685393258
35267;91;91450;Soisy-sur-Seine;48.66095882352941;2.46874705882353
35268;91;91580;Souzy-la-Briche;48.52875600000000;2.14733042857143
35269;91;91740;Congerville-Thionville;48.37794873684211;1.99046831578947
35270;91;91250;Tigery;48.64414901639344;2.52364655737705
35271;91;91730;Torfou;48.53072166666669;2.23571312500000
35272;91;91720;Valpuiseaux;48.39232019801979;2.30200762376238
35273;91;91530;Le Val-Saint-Germain;48.57181152380952;2.08067447619048
35274;91;91480;Varennes-Jarcy;48.67892219178081;2.56174000000000
35275;91;91640;Vaugrigneuse;48.60037811320754;2.10366641509434
35276;91;91430;Vauhallan;48.73225630434783;2.20277021739130
35277;91;91820;Vayres-sur-Essonne;48.43533990740738;2.35163712962963
35278;91;91370;Verrières-le-Buisson;48.74757421052630;2.25380622807018
35279;91;91810;Vert-le-Grand;48.58649755555554;2.36576000000000
35280;91;91710;Vert-le-Petit;48.55092873417722;2.36974379746836
35281;91;91890;Videlles;48.46739602739726;2.41998273972603
35282;91;91270;Vigneux-sur-Seine;48.70444508196722;2.43404459016393
35283;91;91100;Villabé;48.58504062500000;2.45577887500000
35284;91;91140;Villebon-sur-Yvette;48.69790546874999;2.23696960937500
35285;91;91580;Villeconin;48.49822432432433;2.12609927927928
35286;91;91620;La Ville-du-Bois;48.66038896551724;2.26175965517241
35287;91;91140;Villejust;48.67857797297299;2.22279500000000
35288;91;91360;Villemoisson-sur-Orge;48.66335764705882;2.32796058823529
35289;91;91580;Villeneuve-sur-Auvers;48.46827089887640;2.25715595505618
35290;91;91190;Villiers-le-Bâcle;48.72677303797468;2.11960481012658
35291;91;91700;Villiers-sur-Orge;48.65762187500000;2.29865156250000
35292;91;91170;Viry-Châtillon;48.66945901960784;2.36925039215686
35293;91;91320;Wissous;48.73321333333333;2.32938098765432
35294;91;91330;Yerres;48.71321156250000;2.49039822916667
35295;91;91940;Les Ulis;48.68162827868854;2.18300188524590
35296;92;92160;Antony;48.74945257425741;2.29933831683168
35297;92;92600;Asnières-sur-Seine;48.91662739999999;2.28671180000000
35298;92;92220;Bagneux;48.80046534883721;2.31185627906977
35299;92;92270;Bois-Colombes;48.91542727272726;2.26556060606061
35300;92;92100;Boulogne-Billancourt;48.83447676470589;2.23801470588235
35301;92;92340;Bourg-la-Reine;48.78099642857142;2.31795607142857
35302;92;92290;Châtenay-Malabry;48.77128801886792;2.25978990566038
35303;92;92320;Châtillon;48.80258666666666;2.28596705882353
35304;92;92370;Chaville;48.80975673076924;2.19121211538462
35305;92;92140;Clamart;48.79878055045872;2.25256733944954
35306;92;92110;Clichy;48.90526777777777;2.30929888888889
35307;92;92700;Colombes;48.92213134615386;2.25150673076923
35308;92;92400;Courbevoie;48.90065025000000;2.25802200000000
35309;92;92260;Fontenay-aux-Roses;48.78990673469389;2.28269224489796
35310;92;92380;Garches;48.84651302325580;2.18706860465116
35311;92;92250;La Garenne-Colombes;48.90713500000000;2.24777800000000
35312;92;92230;Gennevilliers;48.93253964285715;2.29066803571429
35313;92;92130;Issy-les-Moulineaux;48.82211984615387;2.26478861538462
35314;92;92300;Levallois-Perret;48.89515700000000;2.28620200000000
35315;92;92240;Malakoff;48.81346400000000;2.29033560000000
35316;92;92430;Marnes-la-Coquette;48.82902472222221;2.16663694444445
35317;92;92190;Meudon;48.81311450000000;2.23439750000000
35318;92;92360;Meudon;48.79324250000000;2.22164480000000
35319;92;92120;Montrouge;48.81344454545455;2.31801090909091
35320;92;92000;Nanterre;48.89624622641509;2.21393811320755
35321;92;92200;Neuilly-sur-Seine;48.88459500000000;2.26169550000000
35322;92;92350;Le Plessis-Robinson;48.77915202380952;2.26142154761905
35323;92;92800;Puteaux;48.88458666666666;2.23583151515152
35324;92;92500;Rueil-Malmaison;48.86570373493975;2.17676903614458
35325;92;92210;Saint-Cloud;48.84132151515151;2.20578333333333
35326;92;92330;Sceaux;48.77759333333331;2.29410142857143
35327;92;92310;Sèvres;48.82167465116280;2.20987151162791
35328;92;92150;Suresnes;48.87027813953488;2.21604604651163
35329;92;92170;Vanves;48.82131096774194;2.28284354838710
35330;92;92420;Vaucresson;48.84119928571429;2.16088500000000
35331;92;92410;Ville-d'Avray;48.82247345454546;2.17725418181818
35332;92;92390;Villeneuve-la-Garenne;48.93648041666666;2.32374125000000
35333;93;93300;Aubervilliers;48.91765413793105;2.38763913793103
35334;93;93600;Aulnay-sous-Bois;48.94154274809164;2.49535091603053
35335;93;93170;Bagnolet;48.86894805555554;2.42650472222222
35336;93;93150;Le Blanc-Mesnil;48.93694636363635;2.46219645454545
35337;93;93000;Bobigny;48.91076557377051;2.44715344262295
35338;93;93140;Bondy;48.90384434210527;2.48625842105263
35339;93;93350;Le Bourget;48.93678173913043;2.42620195652174
35340;93;93390;Clichy-sous-Bois;48.90831220000000;2.54280940000000
35341;93;93470;Coubron;48.91953213114753;2.57905836065574
35342;93;93120;La Courneuve;48.93235752688172;2.40070247311828
35343;93;93700;Drancy;48.92382297619049;2.45382821428572
35344;93;93440;Dugny;48.95305608108109;2.42423121621622
35345;93;93800;Épinay-sur-Seine;48.95281024390244;2.32321975609756
35346;93;93220;Gagny;48.88299242718445;2.54676679611650
35347;93;93460;Gournay-sur-Marne;48.86190241379311;2.57418551724138
35348;93;93450;L'Île-Saint-Denis;48.93743657142858;2.32493857142857
35349;93;93260;Les Lilas;48.88399434782609;2.42133195652174
35350;93;93190;Livry-Gargan;48.92033378378380;2.53495090090090
35351;93;93370;Montfermeil;48.89529913043480;2.56728163043478
35352;93;93100;Montreuil;48.86430191489363;2.45081031914894
35353;93;93360;Neuilly-Plaisance;48.86486195121952;2.51272634146341
35354;93;93330;Neuilly-sur-Marne;48.86526206896551;2.53672183908046
35355;93;93160;Noisy-le-Grand;48.83600000000001;2.56563018348624
35356;93;93130;Noisy-le-Sec;48.88746432098765;2.45495283950617
35357;93;93500;Pantin;48.89756878787878;2.41268166666667
35358;93;93320;Les Pavillons-sous-Bois;48.90545784313725;2.50152980392157
35359;93;93380;Pierrefitte-sur-Seine;48.95910326923078;2.35926788461538
35360;93;93310;Le Pré-Saint-Gervais;48.88463720000001;2.40743600000000
35361;93;93340;Le Raincy;48.89669500000001;2.51919722222222
35362;93;93230;Romainville;48.88417932584269;2.44036191011236
35363;93;93110;Rosny-sous-Bois;48.87378906666667;2.48674706666667
35364;93;93200;Saint-Denis;48.93155230000000;2.35632780000000
35365;93;93210;Saint-Denis;48.91388329999999;2.35767660000000
35366;93;93400;Saint-Ouen;48.91191033333335;2.33308733333333
35367;93;93270;Sevran;48.93684736842103;2.52817421052632
35368;93;93240;Stains;48.95270319999999;2.39110933333333
35369;93;93290;Tremblay-en-France;48.97638113095239;2.55445732142857
35370;93;93410;Vaujours;48.93275253164556;2.58114911392405
35371;93;93250;Villemomble;48.88461440000001;2.50902866666667
35372;93;93420;Villepinte;48.95807417582416;2.53635131868132
35373;93;93430;Villetaneuse;48.95996583333334;2.34719555555556
35374;94;94480;Ablon-sur-Seine;48.72588714285714;2.42129333333333
35375;94;94140;Alfortville;48.79424000000000;2.42026171428572
35376;94;94110;Arcueil;48.80528682539681;2.33415079365080
35377;94;94470;Boissy-Saint-Léger;48.75044906976746;2.51939209302326
35378;94;94380;Bonneuil-sur-Marne;48.77450277777777;2.48876777777778
35379;94;94360;Bry-sur-Marne;48.83685129629630;2.52220851851852
35380;94;94230;Cachan;48.78977475000001;2.33297375000000
35381;94;94500;Champigny-sur-Marne;48.81618339999998;2.52496560000000
35382;94;94220;Charenton-le-Pont;48.82204111111111;2.40846777777778
35383;94;94430;Chennevières-sur-Marne;48.79810647887324;2.53871352112676
35384;94;94550;Chevilly-Larue;48.76561760000001;2.34595240000000
35385;94;94600;Choisy-le-Roi;48.76540465517245;2.42203344827586
35386;94;94000;Créteil;48.78098638297872;2.45464180851064
35387;94;94120;Fontenay-sous-Bois;48.85095750000000;2.47537625000000
35388;94;94260;Fresnes;48.75766596774194;2.32520887096774
35389;94;94250;Gentilly;48.81263411764706;2.34224588235294
35390;94;94240;L'Haÿ-les-Roses;48.77668384615384;2.33762961538462
35391;94;94200;Ivry-sur-Seine;48.80877620000003;2.38732000000000
35392;94;94340;Joinville-le-Pont;48.81852297872342;2.46838234042553
35393;94;94270;Le Kremlin-Bicêtre;48.80799340909090;2.35684454545455
35394;94;94450;Limeil-Brévannes;48.74641303571428;2.49129767857143
35395;94;94700;Maisons-Alfort;48.80535883720928;2.44167162790698
35396;94;94520;Mandres-les-Roses;48.70707861538460;2.54706276923077
35397;94;94440;Marolles-en-Brie;48.73833295454547;2.55404227272727
35398;94;94130;Nogent-sur-Marne;48.83654240000001;2.47690320000000
35399;94;94880;Noiseau;48.77420786885246;2.55670475409836
35400;94;94310;Orly;48.74261685714286;2.40023200000000
35401;94;94490;Ormesson-sur-Marne;48.78572218181818;2.53887454545454
35402;94;94520;Périgny;48.69603464285716;2.55831178571429
35403;94;94170;Le Perreux-sur-Marne;48.84388404761904;2.50614023809524
35404;94;94420;Le Plessis-Trévise;48.80743187500000;2.57303333333333
35405;94;94510;La Queue-en-Brie;48.77655179245280;2.58620226415094
35406;94;94150;Rungis;48.74932600000000;2.34637377777778
35407;94;94160;Saint-Mandé;48.84107608695653;2.41990086956522
35408;94;94100;Saint-Maur-des-Fossés;48.79804220000000;2.48008620000000
35409;94;94210;Saint-Maur-des-Fossés;48.79731380000000;2.51378750000000
35410;94;94410;Saint-Maurice;48.81825951219511;2.44028048780488
35411;94;94440;Santeny;48.73056060000001;2.57698830000000
35412;94;94370;Sucy-en-Brie;48.76892872340424;2.53322074468085
35413;94;94320;Thiais;48.76041069767442;2.38710906976744
35414;94;94460;Valenton;48.75098696202532;2.46048177215190
35415;94;94440;Villecresnes;48.71877140624999;2.53493343750000
35416;94;94800;Villejuif;48.79371447761196;2.35819104477612
35417;94;94290;Villeneuve-le-Roi;48.73188198019804;2.41047089108911
35418;94;94190;Villeneuve-Saint-Georges;48.73486612612612;2.45187837837838
35419;94;94350;Villiers-sur-Marne;48.82505538461535;2.54382830769231
35420;94;94300;Vincennes;48.84797953488372;2.44115906976744
35421;94;94400;Vitry-sur-Seine;48.79049743589744;2.39055551282051
35422;95;95450;Ableiges;49.08820796116506;1.97821854368932
35423;95;95510;Aincourt;49.07153802469138;1.77216061728395
35424;95;95420;Ambleville;49.15071700000000;1.69743600000000
35425;95;95710;Ambleville;49.15071700000000;1.69743600000000
35426;95;95510;Amenucourt;49.10478404255319;1.63849276595745
35427;95;95580;Andilly;49.00981661538462;2.30181461538462
35428;95;95100;Argenteuil;48.95465646464645;2.24337979797980
35429;95;95400;Arnouville;48.98569372881357;2.41569694915254
35430;95;95810;Arronville;49.17632557522122;2.11747362831858
35431;95;95420;Arthies;49.09017145161290;1.79898758064516
35432;95;95270;Asnières-sur-Oise;49.14326164062503;2.38108609375000
35433;95;95570;Attainville;49.06214466666667;2.34589066666667
35434;95;95430;Auvers-sur-Oise;49.08044467391304;2.14982347826087
35435;95;95450;Avernes;49.08904718749999;1.86405375000000
35436;95;95560;Baillet-en-France;49.05905097560975;2.29725292682927
35437;95;95420;Banthelu;49.12842521126760;1.81576281690141
35438;95;95250;Beauchamp;49.01519947368422;2.19482842105263
35439;95;95260;Beaumont-sur-Oise;49.13973205128207;2.29841500000000
35440;95;95750;Le Bellay-en-Vexin;49.15075298245614;1.88157298245614
35441;95;95270;Bellefontaine;49.09250261682241;2.46769579439252
35442;95;95270;Belloy-en-France;49.09204896551724;2.36746500000000
35443;95;95340;Bernes-sur-Oise;49.16847052631577;2.30079859649123
35444;95;95810;Berville;49.19440052631580;2.07028934210526
35445;95;95550;Bessancourt;49.04060627118643;2.20444966101695
35446;95;95840;Béthemont-la-Forêt;49.05815137931035;2.24960086206897
35447;95;95870;Bezons;48.93060576923078;2.20877615384615
35448;95;95000;Boisemont;49.01880962962963;2.00470370370370
35449;95;95650;Boissy-l'Aillerie;49.08100233333335;2.03076033333333
35450;95;95500;Bonneuil-en-France;48.96476151898735;2.43140113924051
35451;95;95570;Bouffémont;49.04182057692307;2.29859269230769
35452;95;95720;Bouqueval;49.02195098039216;2.42666666666667
35453;95;95710;Bray-et-Lû;49.14250318681319;1.66462395604396
35454;95;95640;Bréançon;49.15153387096774;2.02447731182796
35455;95;95640;Brignancourt;49.14031262295082;1.94244245901639
35456;95;95820;Bruyères-sur-Oise;49.16287082191781;2.32870260273973
35457;95;95770;Buhy;49.19013239130433;1.70626586956522
35458;95;95430;Butry-sur-Oise;49.08484682926829;2.19002170731707
35459;95;95000;Cergy;49.03316710000000;2.05472220000000
35460;95;95800;Cergy;49.04898990000000;2.01653130000000
35461;95;95660;Champagne-sur-Oise;49.14195443181818;2.22480125000000
35462;95;95420;La Chapelle-en-Vexin;49.18450599999999;1.72413400000000
35463;95;95420;Charmont;49.13696213483146;1.78629404494382
35464;95;95750;Chars;49.15790000000001;1.93178507352941
35465;95;95190;Châtenay-en-France;49.06705557692308;2.45854538461538
35466;95;95270;Chaumontel;49.12701545454546;2.43264480519480
35467;95;95710;Chaussy;49.11465220779220;1.69807922077922
35468;95;95560;Chauvry;49.05888611111110;2.26912375000000
35469;95;95380;Chennevières-lès-Louvres;49.04205108333331;2.54821850000000
35470;95;95510;Chérence;49.09009731343284;1.68568313432836
35471;95;95420;Cléry-en-Vexin;49.13013826923078;1.84388211538462
35472;95;95450;Commeny;49.12898943661970;1.89022380281690
35473;95;95450;Condécourt;49.03787859154928;1.93904098591549
35474;95;95240;Cormeilles-en-Parisis;48.97191252252250;2.20147756756757
35475;95;95830;Cormeilles-en-Vexin;49.11261931818182;2.01605806818182
35476;95;95650;Courcelles-sur-Viosne;49.07500826923076;2.00219403846154
35477;95;95800;Courdimanche;49.03937147540985;1.99825459016393
35478;95;95170;Deuil-la-Barre;48.97233593750000;2.32881765625000
35479;95;95330;Domont;49.02871625000000;2.32402739583333
35480;95;95600;Eaubonne;48.99077588235294;2.27815338235294
35481;95;95440;Écouen;49.02253925373134;2.38073104477612
35482;95;95880;Enghien-les-Bains;48.96999702702703;2.30270351351351
35483;95;95300;Ennery;49.07321057471265;2.10832597701149
35484;95;95380;Épiais-lès-Louvres;49.03266831325301;2.54988000000000
35485;95;95810;Épiais-Rhus;49.12847237037036;2.07430429629630
35486;95;95270;Épinay-Champlâtreux;49.09099160000002;2.40898740000000
35487;95;95610;Éragny;49.02149823529412;2.09999529411765
35488;95;95120;Ermont;48.98723271186442;2.25881338983051
35489;95;95460;Ézanville;49.03582729166667;2.36235520833333
35490;95;95190;Fontenay-en-Parisis;49.04739280898877;2.45446213483146
35491;95;95470;Fosses;49.09863789473684;2.49787157894737
35492;95;95130;Franconville;48.98359014084506;2.22323112676056
35493;95;95450;Frémainville;49.06493582278481;1.86705329113924
35494;95;95830;Frémécourt;49.12196437500000;1.99454687500000
35495;95;95740;Frépillon;49.04896902439026;2.19942073170732
35496;95;95530;La Frette-sur-Seine;48.97279851063831;2.17884404255319
35497;95;95690;Frouville;49.15462839506172;2.14963962962963
35498;95;95140;Garges-lès-Gonesse;48.97020842105265;2.41119578947368
35499;95;95420;Genainville;49.12055698924732;1.75348612903226
35500;95;95650;Génicourt;49.09656296296296;2.06099740740741
35501;95;95500;Gonesse;48.98830310344827;2.45850250000000
35502;95;95190;Goussainville;49.02880990654208;2.47002607476636
35503;95;95450;Gouzangrez;49.11457818181818;1.91008090909091
35504;95;95810;Grisy-les-Plâtres;49.12983972972974;2.05269945945946
35505;95;95410;Groslay;48.98515620689655;2.34862224137931
35506;95;95450;Guiry-en-Vexin;49.11566636363636;1.85267712121212
35507;95;95640;Haravilliers;49.17370432098766;2.03516098765432
35508;95;95780;Haute-Isle;49.08442452830188;1.66060075471698
35509;95;95640;Le Heaulme;49.16624604166668;1.99692729166667
35510;95;95690;Hédouville;49.15889397959184;2.17723408163265
35511;95;95220;Herblay;48.99917055555554;2.15650763888889
35512;95;95300;Hérouville-en-Vexin;49.10231623188406;2.12852463768116
35513;95;95420;Hodent;49.14240807692310;1.76605692307692
35514;95;95290;L'Isle-Adam;49.11147647058826;2.24040784313725
35515;95;95850;Jagny-sous-Bois;49.08316981481481;2.44469157407407
35516;95;95280;Jouy-le-Moutier;49.01161250000001;2.03159365384615
35517;95;95690;Labbeville;49.13983807692308;2.13151990384615
35518;95;95270;Lassy;49.09393666666666;2.43724095238095
35519;95;95300;Livilliers;49.09981838235294;2.09118264705882
35520;95;95450;Longuesse;49.06234465116279;1.92992302325581
35521;95;95380;Louvres;49.04056463917524;2.49906164948454
35522;95;95270;Luzarches;49.11622376288661;2.43130639175258
35523;95;95560;Maffliers;49.08416968000000;2.31226384000000
35524;95;95420;Magny-en-Vexin;49.16207476190476;1.80529564625850
35525;95;95850;Mareil-en-France;49.07280938775509;2.42169571428571
35526;95;95580;Margency;49.00180222222222;2.28816481481481
35527;95;95640;Marines;49.15088707964600;1.98396893805310
35528;95;95670;Marly-la-Ville;49.08478293103448;2.50235362068966
35529;95;95420;Maudétour-en-Vexin;49.11218607142856;1.77580892857143
35530;95;95810;Menouville;49.15312788461540;2.10986442307692
35531;95;95180;Menucourt;49.02763608695650;1.97606804347826
35532;95;95630;Mériel;49.07733312500000;2.21302166666667
35533;95;95540;Méry-sur-Oise;49.05484739583332;2.17219968750000
35534;95;95720;Le Mesnil-Aubry;49.05158025641025;2.39400282051282
35535;95;95570;Moisselles;49.04758863636363;2.33533750000000
35536;95;95650;Montgeroult;49.08752646341463;2.00639097560976
35537;95;95370;Montigny-lès-Cormeilles;48.99000339622641;2.18957037735849
35538;95;95680;Montlignon;49.01382416666665;2.28914650000000
35539;95;95360;Montmagny;48.96861208955223;2.34353268656716
35540;95;95160;Montmorency;48.99314542857142;2.32032247619048
35541;95;95770;Montreuil-sur-Epte;49.17146252525254;1.68361969696970
35542;95;95560;Montsoult;49.07253041237116;2.30052628865979
35543;95;95260;Mours;49.12953068493150;2.26029000000000
35544;95;95640;Moussy;49.13484349206348;1.90671873015873
35545;95;95590;Nerville-la-Forêt;49.09026500000000;2.28430653846154
35546;95;95690;Nesles-la-Vallée;49.12898566433564;2.17554230769231
35547;95;95640;Neuilly-en-Vexin;49.17337241379310;1.98349948275862
35548;95;95000;Neuville-sur-Oise;49.01726717391306;2.06489478260870
35549;95;95590;Nointel;49.13067302325582;2.28983000000000
35550;95;95270;Noisy-sur-Oise;49.13803739130435;2.32599043478261
35551;95;95420;Nucourt;49.16082133333335;1.85425616666667
35552;95;95420;Omerville;49.14135407766990;1.72429902912621
35553;95;95520;Osny;49.06657884615384;2.06488871794872
35554;95;95620;Parmain;49.11840873134331;2.19997537313433
35555;95;95450;Le Perchay;49.11845441176472;1.92975588235294
35556;95;95340;Persan;49.15007058823529;2.26727607843137
35557;95;95220;Pierrelaye;48.99614480000000;2.14753570000000
35558;95;95480;Pierrelaye;49.02270670000000;2.15471900000000
35559;95;95350;Piscop;49.01721701492535;2.34045895522388
35560;95;95130;Le Plessis-Bouchard;49.00450555555555;2.23639222222222
35561;95;95720;Le Plessis-Gassot;49.03420150000000;2.41498900000000
35562;95;95270;Le Plessis-Luzarches;49.09511017543860;2.45638561403509
35563;95;95000;Pontoise;49.03316710000000;2.05472220000000
35564;95;95300;Pontoise;49.09290690000000;2.10412480000000
35565;95;95590;Presles;49.10969400000001;2.28782960000000
35566;95;95380;Puiseux-en-France;49.07070196428571;2.48925750000000
35567;95;95650;Puiseux-Pontoise;49.06761573770492;2.02058032786885
35568;95;95780;La Roche-Guyon;49.09188600000002;1.63614873684211
35569;95;95700;Roissy-en-France;49.00405851485150;2.51842950495050
35570;95;95340;Ronquerolles;49.16940864406780;2.20950898305085
35571;95;95450;Sagy;49.05306962962963;1.96434629629630
35572;95;95350;Saint-Brice-sous-Forêt;49.00286964705882;2.34882564705882
35573;95;95770;Saint-Clair-sur-Epte;49.21169631249999;1.69621618750000
35574;95;95510;Saint-Cyr-en-Arthies;49.06104847457627;1.74239932203390
35575;95;95420;Saint-Gervais;49.16526240384615;1.75908625000000
35576;95;95210;Saint-Gratien;48.96939281249999;2.28339703125000
35577;95;95320;Saint-Leu-la-Forêt;49.02003440000001;2.24609520000000
35578;95;95270;Saint-Martin-du-Tertre;49.09757347457624;2.33562067796610
35579;95;95310;Saint-Ouen-l'Aumône;49.04754642857144;2.13228757142857
35580;95;95390;Saint-Prix;49.01685919354839;2.27306516129032
35581;95;95470;Saint-Witz;49.08577914285715;2.55323380952381
35582;95;95110;Sannois;48.97179847058822;2.25404317647059
35583;95;95640;Santeuil;49.12846706521741;1.95537695652174
35584;95;95200;Sarcelles;48.99668307692307;2.37979858974359
35585;95;95450;Seraincourt;49.04083783505155;1.87647092783505
35586;95;95270;Seugy;49.12281095238095;2.39360023809524
35587;95;95230;Soisy-sous-Montmorency;48.98910777777778;2.30312541666667
35588;95;95470;Survilliers;49.10571285714285;2.54832971428571
35589;95;95150;Taverny;49.03016242857144;2.22522300000000
35590;95;95450;Théméricourt;49.08518132075472;1.90090660377359
35591;95;95810;Theuville;49.15490253521126;2.06828633802817
35592;95;95500;Le Thillay;49.00429226415095;2.46955830188679
35593;95;95450;Us;49.10513978494624;1.95814655913978
35594;95;95810;Vallangoujard;49.13628919191919;2.10375383838384
35595;95;95760;Valmondois;49.09819428571428;2.18757846153846
35596;95;95500;Vaudherland;49.00095235294118;2.48723647058824
35597;95;95490;Vauréal;49.03155282051283;2.02903538461538
35598;95;95470;Vémars;49.06109588709682;2.56585250000000
35599;95;95510;Vétheuil;49.06252573033707;1.70746337078652
35600;95;95270;Viarmes;49.12372597938147;2.38261082474227
35601;95;95510;Vienne-en-Arthies;49.06675374999999;1.72136475000000
35602;95;95450;Vigny;49.07949877551022;1.93307877551020
35603;95;95570;Villaines-sous-Bois;49.07550363636363;2.35301227272727
35604;95;95380;Villeron;49.05584833333331;2.53772488095238
35605;95;95510;Villers-en-Arthies;49.08014703125001;1.73017500000000
35606;95;95840;Villiers-Adam;49.06581656250000;2.23847604166667
35607;95;95400;Villiers-le-Bel;49.00812831168833;2.40212246753247
35608;95;95720;Villiers-le-Sec;49.07325222222224;2.38618388888889
35609;95;95420;Wy-dit-Joli-Village;49.09766507246376;1.82626028985507
